[{"Latitude": 53.0084124, "BrinNumber": "18BR", "Longtitude": 6.5522869, "SchoolName": "School voor Praktijkonderwijs Assen"}, {"Latitude": 53.0037859, "BrinNumber": "20LO", "Longtitude": 6.561177, "SchoolName": "Openbare Scholengemeenschap Dr Nassau College voor Vwo Havo Mavo Vbo Lwoo"}, {"Latitude": 52.7182633, "BrinNumber": "06DT", "Longtitude": 6.4921043, "SchoolName": "School voor Praktijkonderwijs De Meander"}, {"Latitude": 52.7187654, "BrinNumber": "19IW", "Longtitude": 6.495513799999999, "SchoolName": "Regionale Scholengemeenschap Wolfsbos"}, {"Latitude": 52.9901324, "BrinNumber": "01NJ", "Longtitude": 6.5792115, "SchoolName": "Agrarisch Opleidingscentrum Terra"}, {"Latitude": 52.7782309, "BrinNumber": "00PF", "Longtitude": 6.9269754, "SchoolName": "Carmelcollege Emmen"}, {"Latitude": 53.1411145, "BrinNumber": "00DI", "Longtitude": 6.4118928, "SchoolName": "rsg de Borgen voor Lyceum Havo mavo Vbo Lwoo"}, {"Latitude": 52.7222182, "BrinNumber": "02VA", "Longtitude": 6.4955656, "SchoolName": "Roelof van Echten College"}, {"Latitude": 52.7798046, "BrinNumber": "16VP", "Longtitude": 6.9048547, "SchoolName": "Hondsrug College Christelijke SGM voor LYC HAVO MAVO VBO LWOO"}, {"Latitude": 52.7757405, "BrinNumber": "26HX", "Longtitude": 6.946748899999999, "SchoolName": "Praktijkschool Emmen"}, {"Latitude": 52.6916629, "BrinNumber": "19TQ", "Longtitude": 6.1986968, "SchoolName": "Stad & Esch Praktijkschool"}, {"Latitude": 52.6916629, "BrinNumber": "25CL", "Longtitude": 6.1986968, "SchoolName": "Regionale Scholengemeenschap Stad en Esch voor Lyceum Havo Mavo Vbo Lwoo"}, {"Latitude": 52.6603042, "BrinNumber": "12IR", "Longtitude": 6.7523938, "SchoolName": "Scholengemeenschap de Nieuwe Veste voor Lyceum Havo Mavo Vbo Lwoo"}, {"Latitude": 53.0014854, "BrinNumber": "02UV", "Longtitude": 6.562991999999999, "SchoolName": "Gereformeerde Scholengemeenschap voor Lyceum Havo Mavo Vbo Lwoo"}, {"Latitude": 52.7845907, "BrinNumber": "20LA", "Longtitude": 6.906085, "SchoolName": "Openbare Scholengemeenschap voor Lyceum Havo Mavo Vbo Lwoo Esdal College"}, {"Latitude": 53.0943154, "BrinNumber": "20ER", "Longtitude": 6.6761542, "SchoolName": "Zernike College voor Ath Havo Mavo Vbo"}, {"Latitude": 52.7012138, "BrinNumber": "17VS", "Longtitude": 6.1885159, "SchoolName": "Prof dr S Greijdanus College voor Vwo Havo Mavo Vbo Lwoo"}, {"Latitude": 52.99898719999999, "BrinNumber": "02EB", "Longtitude": 6.546957600000001, "SchoolName": "Christelijk Scholengemeenschap Vincent van Gogh Lyceum Havo Mavo Vbo Lwoo"}, {"Latitude": 52.6897321, "BrinNumber": "03XM", "Longtitude": 6.1824454, "SchoolName": "Christelijke Scholengemeenschap Dingstede voor Mavo Havo en Atheneum"}, {"Latitude": 52.52516989999999, "BrinNumber": "01XN", "Longtitude": 5.7075936, "SchoolName": "Almere College Ontmoetingsschool voor PRO LWOO VMBO HAVO VWO"}, {"Latitude": 52.3283642, "BrinNumber": "17CK", "Longtitude": 5.5365601, "SchoolName": "Regionale Scholengemeenschap 't Slingerbos voor Ath Havo Mavo"}, {"Latitude": 52.4991081, "BrinNumber": "18PR", "Longtitude": 5.4897498, "SchoolName": "De Steiger school voor Praktijkonderwijs"}, {"Latitude": 52.6636792, "BrinNumber": "23VL", "Longtitude": 5.6290266, "SchoolName": "Scholengemeenschap Pieter Zandt voor Lyceum Havo Mavo Vbo Lwoo"}, {"Latitude": 52.3950922, "BrinNumber": "24RW", "Longtitude": 5.266564199999999, "SchoolName": "Oostvaarders College voor Lyceum Havo Mavo Vbo Lwoo"}, {"Latitude": 52.6688793, "BrinNumber": "18XX", "Longtitude": 5.6053267, "SchoolName": "Berechja College voor MAVO HAVO VBO"}, {"Latitude": 52.7106466, "BrinNumber": "05NV", "Longtitude": 5.739957, "SchoolName": "Groenhorst College voor Praktijkonderwijs"}, {"Latitude": 52.7098837, "BrinNumber": "25GV", "Longtitude": 5.743252099999999, "SchoolName": "Agrarisch Opleidingen Centrum Groenhorst"}, {"Latitude": 52.3474109, "BrinNumber": "27VD", "Longtitude": 5.1673715, "SchoolName": "AOC Groenhorst Almere Afdeling VMBO-groen"}, {"Latitude": 52.32943909999999, "BrinNumber": "02EX", "Longtitude": 5.5353409, "SchoolName": "Christelijke Scholengemeenschap voor VMBO Harderwijk"}, {"Latitude": 52.7127376, "BrinNumber": "02KR", "Longtitude": 5.7559242, "SchoolName": "St Bonifatius Mavo"}, {"Latitude": 52.7148491, "BrinNumber": "20CR", "Longtitude": 5.7584577, "SchoolName": "Openbare School voor voortgezet onderwijs Zuyderzee College"}, {"Latitude": 52.5219269, "BrinNumber": "02VB", "Longtitude": 5.7119725, "SchoolName": "Ichthus College Scholengemeenschap voor Lyceum Havo Mavo Vbo Lwoo"}, {"Latitude": 52.5086499, "BrinNumber": "00ZO", "Longtitude": 5.481271, "SchoolName": "Interconfessionele Scholengemeenschap Arcus voor Atheneum Havo Mavo Vbo Lwoo"}, {"Latitude": 52.5241049, "BrinNumber": "18DQ", "Longtitude": 5.4756731, "SchoolName": "Scholengemeenschap Lelystad voor Ath Havo Mavo Vbo Lwoo"}, {"Latitude": 52.4979467, "BrinNumber": "18GC", "Longtitude": 5.475812299999999, "SchoolName": "Scholengemeenschap De Rietlanden Ath Havo Mavo Vbo Lwoo"}, {"Latitude": 52.3677755, "BrinNumber": "16AW", "Longtitude": 5.2123855, "SchoolName": "Openbare Scholengemeenschap Echnaton"}, {"Latitude": 52.3362103, "BrinNumber": "17DN", "Longtitude": 5.217670099999999, "SchoolName": "Openbare Scholengemeenschap De Meergronden voor Lyc Havo Mavo Vbo Lwoo"}, {"Latitude": 52.3695196, "BrinNumber": "17JI", "Longtitude": 5.1999907, "SchoolName": "Praktijkonderwijs Almere-Bachweg"}, {"Latitude": 52.4017819, "BrinNumber": "28BU", "Longtitude": 5.310886399999999, "SchoolName": "Praktijkonderwijs Almere-Marathonlaan"}, {"Latitude": 52.371891, "BrinNumber": "30UD", "Longtitude": 5.2745902, "SchoolName": "Praktijkonderwijs-Almere Koningsbeltweg"}, {"Latitude": 52.7155884, "BrinNumber": "02JG", "Longtitude": 5.7511978, "SchoolName": "Emelwerda College Christelijke Scholengemeenschap voor Lwoo Mavo Havo Vwo"}, {"Latitude": 52.3774783, "BrinNumber": "01FP", "Longtitude": 5.220536, "SchoolName": "Het Baken"}, {"Latitude": 53.4459174, "BrinNumber": "19HY", "Longtitude": 5.763995899999999, "SchoolName": "Burg Walda Scholengemeenschap voor VMBO"}, {"Latitude": 53.3845277, "BrinNumber": "19ET", "Longtitude": 5.2888199, "SchoolName": "Gemeentelijke Scholengemeenschap t Schylger Jouw voor vmbo"}, {"Latitude": 53.298478, "BrinNumber": "19EO", "Longtitude": 5.073859, "SchoolName": "Openbare school voor vmbo De Krijtenburg"}, {"Latitude": 53.1122153, "BrinNumber": "04YE", "Longtitude": 6.0999668, "SchoolName": "Openbare Scholengemeenschap Singelland voor Lyceum Havo Mavo Vbo Lwoo"}, {"Latitude": 53.1861326, "BrinNumber": "20DL", "Longtitude": 5.8044661, "SchoolName": "Openbare Scholengemeenschap Piter Jelles voor Lyceum Havo Mavo Vbo Lwoo"}, {"Latitude": 53.1693271, "BrinNumber": "14DC", "Longtitude": 5.426030100000001, "SchoolName": "RSG Simon Vestdijk voor Ath Havo Mavo Vbo"}, {"Latitude": 53.2542409, "BrinNumber": "12VI", "Longtitude": 6.1512672, "SchoolName": "Nordwin College"}, {"Latitude": 53.2498324, "BrinNumber": "00ZV", "Longtitude": 6.153383199999999, "SchoolName": "Lauwers College Christelijk Scholengemeenschap voor Atheneum Havo Mavo Vbo"}, {"Latitude": 53.3165559, "BrinNumber": "00ZX", "Longtitude": 6.0002121, "SchoolName": "Dockingacollege Chr SGS VMBO/HAVO/VWO"}, {"Latitude": 52.8941246, "BrinNumber": "00ZH", "Longtitude": 5.5805056, "SchoolName": "Scholengemeenschap Gaasterland voor Christelijk Mavo en Lhno"}, {"Latitude": 53.0322001, "BrinNumber": "04FR", "Longtitude": 5.645537099999999, "SchoolName": "De Diken - locatie de Zuiderpoort"}, {"Latitude": 53.0322001, "BrinNumber": "25CR", "Longtitude": 5.645537099999999, "SchoolName": "Bogerman Scholengemeenschap voor Lyceum Havo Mavo Vbo Lwoo"}, {"Latitude": 53.0665852, "BrinNumber": "25GB", "Longtitude": 5.518364900000001, "SchoolName": "Marne College voor Atheneum Havo Mavo Vbo Lwoo"}, {"Latitude": 53.1041495, "BrinNumber": "25CM", "Longtitude": 6.115250899999999, "SchoolName": "Christelijke Scholengemeenschap Liudger voor Lyceum Havo Mavo Vbo Lwoo Pro"}, {"Latitude": 52.950267, "BrinNumber": "25CV", "Longtitude": 5.9243134, "SchoolName": "Bornego College Chr. Scholengemeenschap voor VMBO, Havo, Atheneum en Gymnasium"}, {"Latitude": 53.1956549, "BrinNumber": "14NS", "Longtitude": 5.5382718, "SchoolName": "Christelijke Scholengemeenschap A.M. van Schurman voor Havo Mavo Vbo"}, {"Latitude": 52.8819844, "BrinNumber": "19LO", "Longtitude": 6.008489099999999, "SchoolName": "Linde College voor Atheneum Havo Mavo Vbo en Lwoo"}, {"Latitude": 53.2790613, "BrinNumber": "01BE", "Longtitude": 5.66106, "SchoolName": "Scholengemeenschap Ulbe Van Houten Christelijke SGM voor Vmbo"}, {"Latitude": 53.19593949999999, "BrinNumber": "02VC", "Longtitude": 5.812439599999999, "SchoolName": "Comenius Christelijke Scholengemeenschap voor Atheneum Havo Vmbo Lwoo Pro"}, {"Latitude": 53.1944712, "BrinNumber": "14WI", "Longtitude": 5.795552499999999, "SchoolName": "Christelijk Gymnasium Beyers Naude"}, {"Latitude": 53.0303078, "BrinNumber": "16FP", "Longtitude": 5.6539598, "SchoolName": "Regionale Scholengemeenschap Magister Alvinus voor Vwo Havo Mavo Vbo"}, {"Latitude": 52.99166530000001, "BrinNumber": "15VQ", "Longtitude": 6.289337799999999, "SchoolName": "Stellingwerf College"}, {"Latitude": 53.1726115, "BrinNumber": "01KL", "Longtitude": 5.4345082, "SchoolName": "Noordzee Onderwijs Groep- locatie Maritieme Academie Harlingen"}, {"Latitude": 52.950267, "BrinNumber": "05AC", "Longtitude": 5.9243134, "SchoolName": "Vakcollege Sevenwolden"}, {"Latitude": 52.9700721, "BrinNumber": "14FW", "Longtitude": 5.9120941, "SchoolName": "Openbare Scholengroep  voor VMBO, Havo, Atheneum en Gymnasium"}, {"Latitude": 52.9679341, "BrinNumber": "26KP", "Longtitude": 5.9209637, "SchoolName": "De Compagnie Praktijkonderwijs Sevenwolden"}, {"Latitude": 53.00376199999999, "BrinNumber": "01WM", "Longtitude": 6.0648636, "SchoolName": "Burg Harmsma SGM voor VO Mavo Lhno en Lto"}, {"Latitude": 53.0336837, "BrinNumber": "26MG", "Longtitude": 5.6417823, "SchoolName": "De Praktijkschool"}, {"Latitude": 53.32085069999999, "BrinNumber": "05NE", "Longtitude": 5.9863956, "SchoolName": "Christelijke School voor Praktijkonderwijs J J Boumanschool"}, {"Latitude": 53.2151377, "BrinNumber": "30UV", "Longtitude": 5.9489318, "SchoolName": "Tjalling Koopmans College voor Vwo en Mavo"}, {"Latitude": 53.2885499, "BrinNumber": "02XE", "Longtitude": 5.996989999999999, "SchoolName": "School voor Christelijk Mavo De Saad"}, {"Latitude": 53.4794724, "BrinNumber": "02XQ", "Longtitude": 6.163253999999999, "SchoolName": "Inspecteur Boelensschool voor Mavo"}, {"Latitude": 51.9471383, "BrinNumber": "03RR", "Longtitude": 6.0031265, "SchoolName": "Candea College Atheneum Havo Mavo Vbo"}, {"Latitude": 51.962402, "BrinNumber": "05FF", "Longtitude": 5.902656200000001, "SchoolName": "Olympuscollege PC RK SGM voor Lyceum Havo Mavo"}, {"Latitude": 51.9307834, "BrinNumber": "08PS", "Longtitude": 6.125356099999999, "SchoolName": "Symbion School voor Praktijkonderwijs"}, {"Latitude": 51.9562863, "BrinNumber": "12NW", "Longtitude": 5.8610698, "SchoolName": "Produs"}, {"Latitude": 51.9355291, "BrinNumber": "16SK", "Longtitude": 6.0579673, "SchoolName": "Liemers College SGM voor LYC HAVO MAVO VBO LWOO"}, {"Latitude": 51.98139459999999, "BrinNumber": "20RM", "Longtitude": 5.9276027, "SchoolName": "Stedelijk Gymnasium Arnhem"}, {"Latitude": 51.95226719999999, "BrinNumber": "20TZ", "Longtitude": 5.8973302, "SchoolName": "Lorentz Groep"}, {"Latitude": 51.9955284, "BrinNumber": "25GL", "Longtitude": 5.9404445, "SchoolName": "Openb. SGM. Arnhem Noord. voor lyceum, havo, mavo en vbo"}, {"Latitude": 51.9795589, "BrinNumber": "16YV", "Longtitude": 5.675665299999999, "SchoolName": "Regionale Scholengemeenschap Pantarijn voor Lyc Havo Mavo Vbo Pro Lwoo"}, {"Latitude": 51.9451095, "BrinNumber": "19EW", "Longtitude": 5.2347144, "SchoolName": "Openbare Regionale Scholengemeenschap Lek en Linge voor atheneum havo vmbo lwoo"}, {"Latitude": 52.1260302, "BrinNumber": "16NK", "Longtitude": 6.196047800000001, "SchoolName": "Vrije school Zutphen-Groningen"}, {"Latitude": 52.2136697, "BrinNumber": "02RA", "Longtitude": 5.9392808, "SchoolName": "Rooms Katholieke Scholengemeenschap Veluws College voor Lyceum Havo Mavo en Vbo"}, {"Latitude": 51.9327662, "BrinNumber": "26CC", "Longtitude": 5.590831199999999, "SchoolName": "Helicon Opleidingen"}, {"Latitude": 52.0394298, "BrinNumber": "02QN", "Longtitude": 6.614200899999999, "SchoolName": "Rooms Katholieke Scholengemeenschap Marianum voor Lyc Havo Mavo Vbo Lwoo"}, {"Latitude": 52.33937479999999, "BrinNumber": "02FB", "Longtitude": 5.6210283, "SchoolName": "Christelijk College Nassau-Veluwe"}, {"Latitude": 51.9839564, "BrinNumber": "02SY", "Longtitude": 5.7970836, "SchoolName": "Scholengemeenschap voor Vwo Dorenweerd College"}, {"Latitude": 52.0951312, "BrinNumber": "05FB", "Longtitude": 6.669313499999999, "SchoolName": "Het Assink lyceum voor Lyceum Havo Mavo Vbo Lwoo"}, {"Latitude": 52.0029951, "BrinNumber": "00JT", "Longtitude": 5.9429143, "SchoolName": "Gereformeerd Scholengemeenschap Guido De Bres Lyceum HAVO MAVO VBO LWOO"}, {"Latitude": 51.8290196, "BrinNumber": "00RZ", "Longtitude": 5.8928904, "SchoolName": "Montessori College voor Vwo, Havo, Vmbo"}, {"Latitude": 52.0194439, "BrinNumber": "25GE", "Longtitude": 5.6613219, "SchoolName": "Christelijke Scholengemeenschap Het Streek voor Lyceum Havo Mavo Vbo Lwoo"}, {"Latitude": 52.0190345, "BrinNumber": "26HV", "Longtitude": 5.666605199999999, "SchoolName": "School voor Praktijk Onderwijs De Opstap"}, {"Latitude": 51.9831751, "BrinNumber": "00TQ", "Longtitude": 5.9630749, "SchoolName": "Scholengemeenschap Mari\ufffdndael VBO LWOO"}, {"Latitude": 52.1341876, "BrinNumber": "08LP", "Longtitude": 6.2214828, "SchoolName": "Isendoorn College voor Mavo Havo en Atheneum"}, {"Latitude": 51.9516082, "BrinNumber": "19QA", "Longtitude": 5.2347604, "SchoolName": "Koningin Wilhelmina College voor Lyc Havo Mavo Vbo Pro en Lwoo"}, {"Latitude": 52.3775142, "BrinNumber": "00MP", "Longtitude": 6.02814, "SchoolName": "Christelijk College De Noordgouw"}, {"Latitude": 52.0043339, "BrinNumber": "02VN", "Longtitude": 5.971376299999999, "SchoolName": "Regionale Scholengemeenschap Het Rhedens voor Lyceum Havo Mavo Vbo"}, {"Latitude": 52.0545494, "BrinNumber": "26NH", "Longtitude": 6.0943181, "SchoolName": "De Tender School voor Praktijkonderwijs"}, {"Latitude": 51.95378789999999, "BrinNumber": "01IC", "Longtitude": 6.3020914, "SchoolName": "AOC Oost"}, {"Latitude": 51.8800372, "BrinNumber": "23HC", "Longtitude": 5.420702599999999, "SchoolName": "RSG Lingecollege"}, {"Latitude": 51.8332454, "BrinNumber": "26JR", "Longtitude": 5.823333, "SchoolName": "Pro College Nijmegen/Bemmel voor Praktijkonderwijs"}, {"Latitude": 51.8083763, "BrinNumber": "26KY", "Longtitude": 5.7381877, "SchoolName": "Pro College Wijchen voor praktijkonderwijs"}, {"Latitude": 51.8409629, "BrinNumber": "00CB", "Longtitude": 5.8634382, "SchoolName": "Scholengemeenschap voor Voortgezet Vrije Schoolonderwijs"}, {"Latitude": 51.9702486, "BrinNumber": "26MD", "Longtitude": 6.7041675, "SchoolName": "Pronova"}, {"Latitude": 52.19355179999999, "BrinNumber": "08SG", "Longtitude": 5.9959501, "SchoolName": "Christelijk Voortgezet Onderwijs Apeldoorn"}, {"Latitude": 51.837817, "BrinNumber": "01VN", "Longtitude": 5.8844195, "SchoolName": "Canisius College Lyceum Havo Mavo Vbo Lwoo"}, {"Latitude": 51.80380330000001, "BrinNumber": "02ST", "Longtitude": 5.8318033, "SchoolName": "Kandinsky College voor Lyceum Havo Mavo Vbo Lwoo"}, {"Latitude": 51.8295606, "BrinNumber": "02VE", "Longtitude": 5.8683293, "SchoolName": "Nijmeegse Scholengemeenschap Groenewoud voor Vwo Havo en Mavo"}, {"Latitude": 51.8061361, "BrinNumber": "00OB", "Longtitude": 5.75428, "SchoolName": "Maaswaal College voor Gymnasium Atheneum Havo Vmbo Lwoo"}, {"Latitude": 51.8431666, "BrinNumber": "14NQ", "Longtitude": 5.8244282, "SchoolName": "Dominicus Mavo/Havo/Atheneum/Gymnasium"}, {"Latitude": 51.889117, "BrinNumber": "17IR", "Longtitude": 5.615799399999999, "SchoolName": "Pax Christi College - scholengemeenschap voor vwo havo vmbo lwoo"}, {"Latitude": 51.84618, "BrinNumber": "20CI", "Longtitude": 5.85625, "SchoolName": "Stedelijk Gymnasium Nijmegen"}, {"Latitude": 51.82429519999999, "BrinNumber": "20EO", "Longtitude": 5.8452316, "SchoolName": "Stedelijke Scholengemeenschap Nijmegen"}, {"Latitude": 51.83192709999999, "BrinNumber": "21SK", "Longtitude": 5.7807518, "SchoolName": "Mondial College"}, {"Latitude": 51.8695516, "BrinNumber": "30AU", "Longtitude": 5.8568889, "SchoolName": "Citadel College voor vwo havo mavo vbo en lwoo"}, {"Latitude": 52.2110478, "BrinNumber": "02DC", "Longtitude": 5.468431499999999, "SchoolName": "Corlaer College"}, {"Latitude": 52.2110478, "BrinNumber": "26HU", "Longtitude": 5.468431499999999, "SchoolName": "Accent Praktijkonderwijs"}, {"Latitude": 51.9936398, "BrinNumber": "07PK", "Longtitude": 5.9256001, "SchoolName": "Arentheem College Interconfessionele School voor Atheneum Gymnasium Havo Vmbo"}, {"Latitude": 51.9828005, "BrinNumber": "26JT", "Longtitude": 5.9456532, "SchoolName": "Praktijkschool Arentheem"}, {"Latitude": 52.4677466, "BrinNumber": "02VT", "Longtitude": 5.9990445, "SchoolName": "Agnieten College Wezep voor Lyceum Havo Mavo Vbo Lwoo"}, {"Latitude": 51.9283063, "BrinNumber": "00TM", "Longtitude": 5.7232492, "SchoolName": "Christelijk Scholengemeenschap voor Atheneum Havo Mavo Vbo Lwoo"}, {"Latitude": 51.893762, "BrinNumber": "17IM", "Longtitude": 5.9136583, "SchoolName": "Over Betuwe College voor Ath Havo Mavo Vbo Lwoo"}, {"Latitude": 52.1318699, "BrinNumber": "01MU", "Longtitude": 5.6015137, "SchoolName": "De Meerwaarde"}, {"Latitude": 52.1318699, "BrinNumber": "02FO", "Longtitude": 5.6015137, "SchoolName": "De Meerwaarde Praktijkonderwijs"}, {"Latitude": 52.1931416, "BrinNumber": "26KV", "Longtitude": 5.966973299999999, "SchoolName": "Praktijkschool Apeldoorn"}, {"Latitude": 51.8009225, "BrinNumber": "26LU", "Longtitude": 5.241461699999999, "SchoolName": "De Brug School voor Praktijkonderwijs"}, {"Latitude": 52.3446282, "BrinNumber": "07YU", "Longtitude": 5.6161365, "SchoolName": "Mijnschool voor Praktijkonderwijs"}, {"Latitude": 52.168771, "BrinNumber": "03WO", "Longtitude": 5.4502833, "SchoolName": "Van Lodensteincollege Scholengemeenschap voor Lyceum Havo Mavo Vbo Lwoo"}, {"Latitude": 52.0264883, "BrinNumber": "26MV", "Longtitude": 5.6546533, "SchoolName": "Van Lodenstein College Reformatorische School voor Praktijkonderwijs"}, {"Latitude": 52.22023009999999, "BrinNumber": "20KQ", "Longtitude": 5.9617356, "SchoolName": "Openbare Scholengemeenschap Apeldoorn"}, {"Latitude": 52.2205005, "BrinNumber": "20QU", "Longtitude": 5.9655036, "SchoolName": "Gymnasium Apeldoorn"}, {"Latitude": 51.8034007, "BrinNumber": "17AY", "Longtitude": 5.232448499999999, "SchoolName": "Cambium College voor Atheneum Havo Mavo Vbo Lwoo"}, {"Latitude": 52.150195, "BrinNumber": "00SZ", "Longtitude": 5.5824866, "SchoolName": "Johannes Fontanus College Christelijk Scholengemeenschap voor Mavo Havo Atheneum"}, {"Latitude": 52.1501411, "BrinNumber": "24TF", "Longtitude": 6.3960083, "SchoolName": "Staring College Regionale Scholengemeenschap voor Ath Gymn Havo Vmbo"}, {"Latitude": 52.35437839999999, "BrinNumber": "13JO", "Longtitude": 5.9625813, "SchoolName": "Rsgm Noord Oost Veluwe Ath Havo Mavo Vbo Lwoo"}, {"Latitude": 52.0374813, "BrinNumber": "19KZ", "Longtitude": 5.6396114, "SchoolName": "Pallas Athene College Openbare Scholengemeenschap voor Vwo Havo Mavo Vbo"}, {"Latitude": 51.9250211, "BrinNumber": "00LJ", "Longtitude": 6.5742695, "SchoolName": "Christelijk College Schaersvoorde voor Atheneum Havo Mavo Vbo Lwoo"}, {"Latitude": 51.968809, "BrinNumber": "02FC", "Longtitude": 6.309529899999999, "SchoolName": "PC SGM Ulenhof College v Ath Havo Mavo Vbo Lwoo"}, {"Latitude": 51.9707669, "BrinNumber": "02NZ", "Longtitude": 6.3024318, "SchoolName": "Ludger College voor Lyceum Havo Mavo Vbo Lwoo"}, {"Latitude": 52.1391143, "BrinNumber": "13EB", "Longtitude": 6.2110398, "SchoolName": "Praktijkonderwijs Zutphen"}, {"Latitude": 51.9129952, "BrinNumber": "14UM", "Longtitude": 6.3756939, "SchoolName": "Almende College voor Gymnasium Atheneum Havo Mavo Vbo Lwoo"}, {"Latitude": 51.9655145, "BrinNumber": "17AA", "Longtitude": 6.715499299999999, "SchoolName": "Gerrit Komrij College Gemeentelijke Scholengemeenschap voor Vwo Havo Vmbo"}, {"Latitude": 51.9806888, "BrinNumber": "20AD", "Longtitude": 6.289130399999999, "SchoolName": "Rietveld Lyceum Scholengemeenschap voor Gymn Ath Havo Mavo"}, {"Latitude": 52.1438242, "BrinNumber": "20DH", "Longtitude": 6.2004489, "SchoolName": "Het Stedelijk, scholengroep voor openbaar Lyceum Havo Mavo Vbo Lwoo"}, {"Latitude": 51.9584209, "BrinNumber": "26KH", "Longtitude": 6.3016676, "SchoolName": "PRAKTICON"}, {"Latitude": 52.1295879, "BrinNumber": "26KR", "Longtitude": 6.6241148, "SchoolName": "MaxX"}, {"Latitude": 52.4460486, "BrinNumber": "01FU", "Longtitude": 5.8662572, "SchoolName": "Nuborgh College"}, {"Latitude": 52.4481556, "BrinNumber": "17BZ", "Longtitude": 5.844284099999999, "SchoolName": "Scholengemeenschap van de Capellen voor ATH HAVO MAVO VBO LWOO"}, {"Latitude": 52.2910187, "BrinNumber": "00WI", "Longtitude": 5.623016, "SchoolName": "Christelijk College Groevenbeek"}, {"Latitude": 51.835679, "BrinNumber": "02QQ", "Longtitude": 5.9068118, "SchoolName": "Notre Dame Des Anges Havo"}, {"Latitude": 52.1963602, "BrinNumber": "15DN", "Longtitude": 5.963949100000001, "SchoolName": "De Boog Christelijk School voor Prak Vorm"}, {"Latitude": 52.0310764, "BrinNumber": "02UP", "Longtitude": 5.6623098, "SchoolName": "Marnix College  Scholengemeenschap voor Gymnasium Atheneum Havo Mavo"}, {"Latitude": 52.1438242, "BrinNumber": "02VS", "Longtitude": 6.2004489, "SchoolName": "Baudartius College Chr SGM voor Mavo- Havo- Atheneum- Gymnasium"}, {"Latitude": 52.2350199, "BrinNumber": "01RL", "Longtitude": 5.9650967, "SchoolName": "Jacobus Fruijtier Scholengemeenschap v Lyceum Havo Mavo Vbo Lwoo"}, {"Latitude": 53.1106871, "BrinNumber": "16PI", "Longtitude": 6.8670078, "SchoolName": "Openbare Scholengemeenschap Winkler Prins voor ATH HAVO MAVO VBO LWOO"}, {"Latitude": 53.3915304, "BrinNumber": "16ZK", "Longtitude": 6.5566895, "SchoolName": "Hogeland College voor Ath Havo Mavo Vbo Lwoo"}, {"Latitude": 53.2080972, "BrinNumber": "02CR", "Longtitude": 6.554568499999999, "SchoolName": "Willem Lodewijkgymnasium"}, {"Latitude": 53.18491400000001, "BrinNumber": "01UH", "Longtitude": 6.595251699999999, "SchoolName": "Maartenscollege voor Lyceum Havo Mavo"}, {"Latitude": 52.9858493, "BrinNumber": "02VJ", "Longtitude": 6.9494525, "SchoolName": "PC en RK SGM Ubbo Emmius SGM v Lyc Havo Mavo Vbo"}, {"Latitude": 53.23914509999999, "BrinNumber": "14RP", "Longtitude": 6.5808827, "SchoolName": "Christelijke Scholengemeenschap Groningen Vmbo Havo Atheneum"}, {"Latitude": 53.1968645, "BrinNumber": "05OP", "Longtitude": 6.564918, "SchoolName": "Christelijkeschool voor praktijkonderwijs De Bolster"}, {"Latitude": 52.98934860000001, "BrinNumber": "18UZ", "Longtitude": 6.9593451, "SchoolName": "School voor Praktijkonderwijs PrO Stadskanaal"}, {"Latitude": 53.1534233, "BrinNumber": "19UR", "Longtitude": 7.0346451, "SchoolName": "School voor Praktijkonderwijs De Flint"}, {"Latitude": 53.1466644, "BrinNumber": "20CM", "Longtitude": 7.038846599999999, "SchoolName": "Dollard College voor Lyc Havo Mavo Vbo Lwoo"}, {"Latitude": 52.8758721, "BrinNumber": "16IH", "Longtitude": 7.0668319, "SchoolName": "Regionale Scholengemeenschap Ter Apel voor Ath Havo Mavo Lhno"}, {"Latitude": 53.2325561, "BrinNumber": "13ZU", "Longtitude": 6.5515262, "SchoolName": "Reitdiepcollege voor Atheneum Havo Mavo Vbo Lwoo"}, {"Latitude": 53.2362772, "BrinNumber": "17SG", "Longtitude": 6.6070837, "SchoolName": "Heyerdahl College Openbare School voor Praktijkonderwijs"}, {"Latitude": 53.2211354, "BrinNumber": "20BV", "Longtitude": 6.5709748, "SchoolName": "Praedinius Gymnasium"}, {"Latitude": 53.22047329999999, "BrinNumber": "20EM", "Longtitude": 6.5732671, "SchoolName": "H. N. Werkman College voor Ath Havo en Mavo"}, {"Latitude": 53.1533487, "BrinNumber": "25GM", "Longtitude": 6.7628353, "SchoolName": "dr Aletta Jacobs College voor Lyc Havo Mavo Vbo Lwoo"}, {"Latitude": 53.3149764, "BrinNumber": "30JM", "Longtitude": 6.8754993, "SchoolName": "Praktijkonderwijs Eemsdeltacollege"}, {"Latitude": 53.3224268, "BrinNumber": "30PP", "Longtitude": 6.884391099999999, "SchoolName": "Eemsdeltacollege voor vwo, havo mavo en vbo"}, {"Latitude": 51.4311236, "BrinNumber": "21CS", "Longtitude": 6.025899799999999, "SchoolName": "CITAVERDE College"}, {"Latitude": 51.1726601, "BrinNumber": "23HH", "Longtitude": 6.0022243, "SchoolName": "Praktijkonderwijs Roermond"}, {"Latitude": 51.3750509, "BrinNumber": "01GN", "Longtitude": 6.1730515, "SchoolName": "Valuascollege Lyc Ath Havo Mavo Vbo Lwoo"}, {"Latitude": 51.3555196, "BrinNumber": "16XD", "Longtitude": 6.1638926, "SchoolName": "College Den Hulster Scholengemeenschap voor ATH HAVO MAVO VBO LWOO"}, {"Latitude": 51.3736253, "BrinNumber": "19HR", "Longtitude": 6.140619399999999, "SchoolName": "Blariacumcollege Scholengemeenschap voor Lyceum Havo Mavo Vbo Lwoo"}, {"Latitude": 50.9900067, "BrinNumber": "02IB", "Longtitude": 5.852978299999999, "SchoolName": "DaCapocollege Rijksweg Zuid voor Mavo Vbo Lwoo"}, {"Latitude": 50.9913712, "BrinNumber": "02MY", "Longtitude": 5.842835699999999, "SchoolName": "DaCapo College Milaanstraat"}, {"Latitude": 50.9875073, "BrinNumber": "05GV", "Longtitude": 5.8253562, "SchoolName": "DaCapo-College Einighauserweg"}, {"Latitude": 51.0328717, "BrinNumber": "18DE", "Longtitude": 5.8035704, "SchoolName": "DaCapo College Born"}, {"Latitude": 51.0080809, "BrinNumber": "01MO", "Longtitude": 5.8496986, "SchoolName": "Atheneum van de Trevianum Scholengroep"}, {"Latitude": 51.0080809, "BrinNumber": "04DS", "Longtitude": 5.8496986, "SchoolName": "Gymnasium van de Trevianum Scholengroep"}, {"Latitude": 51.0080809, "BrinNumber": "07BQ", "Longtitude": 5.8496986, "SchoolName": "HAVO van de Trevianum Scholengroep"}, {"Latitude": 51.1726601, "BrinNumber": "03XF", "Longtitude": 6.0022243, "SchoolName": "Mundium College voor vwo, havo, mavo, vbo en lwoo"}, {"Latitude": 51.20769869999999, "BrinNumber": "14PS", "Longtitude": 6.0114327, "SchoolName": "Bisschop College Broekhin voor Lyceum Havo Mavo Vbo"}, {"Latitude": 51.1117699, "BrinNumber": "16PE", "Longtitude": 5.8711787, "SchoolName": "Connect College"}, {"Latitude": 51.2088809, "BrinNumber": "17GT", "Longtitude": 5.927167799999999, "SchoolName": "Rooms Katholieke Scholengemeenschap St Ursula voor Vwo Havo Vmbo Lwoo"}, {"Latitude": 51.6861206, "BrinNumber": "17HN", "Longtitude": 5.989201800000001, "SchoolName": "Elzendaalcollege Rooms Katholieke Scholengemeenschap voor Lyc Havo Mavo"}, {"Latitude": 50.7973563, "BrinNumber": "01GL", "Longtitude": 5.886533, "SchoolName": "Sophianum Scholengemeenschap in het Heuvelland"}, {"Latitude": 50.8805691, "BrinNumber": "02DF", "Longtitude": 5.985134500000001, "SchoolName": "Grotiuscollege Stedelijke Scholengemeenschap voor Lyceum Havo Mavo"}, {"Latitude": 51.2428886, "BrinNumber": "02ZR", "Longtitude": 5.6911875, "SchoolName": "Het College voor Lyc Havo Mavo Vbo lwoo"}, {"Latitude": 50.92926130000001, "BrinNumber": "05FJ", "Longtitude": 5.955558, "SchoolName": "Emmacollege voor Havo Mavo Vbo Lwoo"}, {"Latitude": 50.9322727, "BrinNumber": "16SL", "Longtitude": 5.9284478, "SchoolName": "Sint-Janscollege voor Vwo Havo"}, {"Latitude": 51.2562777, "BrinNumber": "18DD", "Longtitude": 5.7182973, "SchoolName": "Scholengemeenschap Philips van Horne voor LYC HAVO MAVO VBO LWOO"}, {"Latitude": 50.9385183, "BrinNumber": "18DO", "Longtitude": 5.9720656, "SchoolName": "Romboutscollege voor Atheneum Havo en Mavo"}, {"Latitude": 50.9576027, "BrinNumber": "19PV", "Longtitude": 5.8250904, "SchoolName": "Graaf Huyn College voor LYC HAVO MAVO VBO LWOO"}, {"Latitude": 50.882096, "BrinNumber": "20IS", "Longtitude": 5.755168599999999, "SchoolName": "Stella Maris College voor Lyc Havo Mavo Vbo Lwoo"}, {"Latitude": 50.9609879, "BrinNumber": "20KA", "Longtitude": 5.7777949, "SchoolName": "Scholengemeenschap Groenewald voor Vmbo Havo VWO"}, {"Latitude": 51.3201917, "BrinNumber": "20LL", "Longtitude": 5.9786528, "SchoolName": "Bouwens van der Boije College voor Lyceum Havo Mavo Lwoo Vbo"}, {"Latitude": 51.51915899999999, "BrinNumber": "25FY", "Longtitude": 5.978991499999999, "SchoolName": "Raayland College RK SGM v Gymn Ath Havo Mavo Vmbo Pro"}, {"Latitude": 51.4618682, "BrinNumber": "25GF", "Longtitude": 6.0490206, "SchoolName": "Dendroncollege RK SGM v Lyc Havo Mavo Vbo Lwoo"}, {"Latitude": 50.8516938, "BrinNumber": "26HL", "Longtitude": 5.6610115, "SchoolName": "School voor Speciaal Voortgezet Onderwijs Terra Nigra"}, {"Latitude": 50.8290929, "BrinNumber": "27VG", "Longtitude": 5.7309053, "SchoolName": "Porta Mosana College"}, {"Latitude": 50.8469924, "BrinNumber": "27ZH", "Longtitude": 5.7463562, "SchoolName": "Sint-Maartenscollege"}, {"Latitude": 50.8505861, "BrinNumber": "27ZJ", "Longtitude": 5.6644052, "SchoolName": "Bonnefantencollege"}, {"Latitude": 51.3605635, "BrinNumber": "17UX", "Longtitude": 6.163598100000001, "SchoolName": "School voor Praktijk onderwijs t Wildveld"}, {"Latitude": 50.8805691, "BrinNumber": "02ZC", "Longtitude": 5.985134500000001, "SchoolName": "Gymnasium voor het Bernardinuscollege"}, {"Latitude": 50.8973312, "BrinNumber": "13FB", "Longtitude": 5.971383899999999, "SchoolName": "Katholieke School voor Praktijkonderwijs"}, {"Latitude": 50.8992964, "BrinNumber": "16VM", "Longtitude": 5.978424800000001, "SchoolName": "Herlecollege Scholengemeenschap voor Vmbo"}, {"Latitude": 50.8978771, "BrinNumber": "17JB", "Longtitude": 6.0243061, "SchoolName": "Charlemagne College voor VWO (ath.-gymn.), havo, vmbo, vmbo-t, lwoo"}, {"Latitude": 50.8805691, "BrinNumber": "19HV", "Longtitude": 5.985134500000001, "SchoolName": "Ath vh Bernardinuscol"}, {"Latitude": 50.8805691, "BrinNumber": "19QC", "Longtitude": 5.985134500000001, "SchoolName": "School voor Havo Mavo V H Bernardinuscollege"}, {"Latitude": 50.8793494, "BrinNumber": "19XS", "Longtitude": 5.958560800000001, "SchoolName": "Sintermeertencollege Scholengemeenschap voor Lyceum Havo Mavo"}, {"Latitude": 50.8973312, "BrinNumber": "26KZ", "Longtitude": 5.971383899999999, "SchoolName": "Openbare School voor Praktijkonderwijs"}, {"Latitude": 51.6541428, "BrinNumber": "02DW", "Longtitude": 5.4726686, "SchoolName": "Gymnasium Bernrode"}, {"Latitude": 51.6900078, "BrinNumber": "20AJ", "Longtitude": 5.289102799999999, "SchoolName": "Stedelijk Gymnasium"}, {"Latitude": 51.5675892, "BrinNumber": "00KV", "Longtitude": 4.647698999999999, "SchoolName": "KSE (Katholieke Scholengemeenschap Etten-Leur e.o.)"}, {"Latitude": 51.3710278, "BrinNumber": "03KN", "Longtitude": 5.230436699999999, "SchoolName": "Rooms Katholieke SGM Pius X voor Gymnasium Atheneum Havo Mavo Vbo Pro Lwoo"}, {"Latitude": 51.61555749999999, "BrinNumber": "04GU", "Longtitude": 5.426247699999999, "SchoolName": "Elde College Schijndel voor VWO HAVO VMBO LWOO en PRO"}, {"Latitude": 51.6737577, "BrinNumber": "23DB", "Longtitude": 5.0464098, "SchoolName": "MET Praktijkonderwijs Waalwijk"}, {"Latitude": 51.5694813, "BrinNumber": "02IS", "Longtitude": 5.0623773, "SchoolName": "Vakcollege Tilburg, sectoren Zorg & Welzijn en Techniek"}, {"Latitude": 51.5732173, "BrinNumber": "09VG", "Longtitude": 4.9942142, "SchoolName": "Onderwijsgroep Tilburg VMBO Reeshof, VMBO LWOO"}, {"Latitude": 51.576668, "BrinNumber": "20GD", "Longtitude": 5.0996556, "SchoolName": "Vakcollege Tilburg, sectoren Economie en Groen"}, {"Latitude": 51.5404765, "BrinNumber": "02HI", "Longtitude": 4.2912681, "SchoolName": "Steenspil  VMBO"}, {"Latitude": 51.5909887, "BrinNumber": "03AM", "Longtitude": 4.788842799999999, "SchoolName": "Stedelijk Gymnasium"}, {"Latitude": 51.599456, "BrinNumber": "15NY", "Longtitude": 4.8034, "SchoolName": "Praktijkschool Breda"}, {"Latitude": 51.5811449, "BrinNumber": "19XV", "Longtitude": 4.7523161, "SchoolName": "Prisma VO"}, {"Latitude": 51.5921513, "BrinNumber": "21CY", "Longtitude": 4.537645599999999, "SchoolName": "AOC West Brabant, vestiging Prinsentuin Oudenbosch vmbo"}, {"Latitude": 51.6024177, "BrinNumber": "25LX", "Longtitude": 4.815735399999999, "SchoolName": "ROC West-Brabant locatie Scala VMBO"}, {"Latitude": 51.4294236, "BrinNumber": "02TC", "Longtitude": 5.455006699999999, "SchoolName": "Christiaan Huygens College voor Lyceum Havo Mavo Vbo Lwoo"}, {"Latitude": 51.4772437, "BrinNumber": "27ZF", "Longtitude": 5.4439928, "SchoolName": "Lyceum Bisschop Bekkers voor Gymnnasium, Atheneum en Havo"}, {"Latitude": 51.5810194, "BrinNumber": "16QH", "Longtitude": 4.7932302, "SchoolName": "De Nassa, Scholengemeenschap voor Gymn Ath Havo Mavo"}, {"Latitude": 51.4333286, "BrinNumber": "01FY", "Longtitude": 5.4963206, "SchoolName": "Augustinianum Scholengemeenschap voor Vwo en Havo"}, {"Latitude": 51.76630129999999, "BrinNumber": "19XH", "Longtitude": 5.5261346, "SchoolName": "Het Hooghuis"}, {"Latitude": 51.7053232, "BrinNumber": "01IW", "Longtitude": 4.8712575, "SchoolName": "Dongemond College voor Atheneum Havo en Vmbo"}, {"Latitude": 51.4488747, "BrinNumber": "25KX", "Longtitude": 5.5089026, "SchoolName": "Lorentz Casimir Lyceum"}, {"Latitude": 51.6419213, "BrinNumber": "13VV", "Longtitude": 4.8462467, "SchoolName": "Praktijkschool De Zwaaikom"}, {"Latitude": 51.4837682, "BrinNumber": "15IS", "Longtitude": 4.3116885, "SchoolName": "Het Kwadrant School voor Praktijk Onderwijs"}, {"Latitude": 51.6641603, "BrinNumber": "06HF", "Longtitude": 5.6274644, "SchoolName": "Udens College voor Lyceum Havo Mavo Vbo Lwoo"}, {"Latitude": 51.6762533, "BrinNumber": "01GH", "Longtitude": 5.0463174, "SchoolName": "W v Oranje Coll Chr SGM v Ath Havo Mavo Vbo Lwoo"}, {"Latitude": 51.4670029, "BrinNumber": "25MB", "Longtitude": 5.497402399999999, "SchoolName": "Stg ROC Summa College"}, {"Latitude": 51.5589586, "BrinNumber": "25MG", "Longtitude": 5.689942299999999, "SchoolName": "Commanderij College voor gymnasium atheneum havo vmbo  en praktijkonderwijs"}, {"Latitude": 51.425933, "BrinNumber": "01XL", "Longtitude": 5.5772745, "SchoolName": "Strabrechtcollege Scholengemeenschap voor LYC HAVO MAVO"}, {"Latitude": 51.5014299, "BrinNumber": "16RT", "Longtitude": 5.388122099999999, "SchoolName": "Voortgezet Onderwijs Best-Oirschot"}, {"Latitude": 51.6994483, "BrinNumber": "05PL", "Longtitude": 5.3174078, "SchoolName": "Ds. Pierson College voor Mavo Havo Atheneum"}, {"Latitude": 51.6426291, "BrinNumber": "30MM", "Longtitude": 5.941595, "SchoolName": "Pro College Boxmeer, school voor Praktijkonderwijs"}, {"Latitude": 51.4991579, "BrinNumber": "02FY", "Longtitude": 4.2870047, "SchoolName": "Mollerlyceum Rooms Katholiek Scholengemeenschap voor Lyceum Havo Mavo Vbo Lwoo"}, {"Latitude": 51.6503162, "BrinNumber": "02QT", "Longtitude": 5.2813897, "SchoolName": "Maurick College Scholengemeenschap voor vmbo, havo, atheneum en gymnasium"}, {"Latitude": 51.62861119999999, "BrinNumber": "04SU", "Longtitude": 5.540176499999999, "SchoolName": "Voortgezet Onderwijs Veghel"}, {"Latitude": 51.5963934, "BrinNumber": "04XU", "Longtitude": 5.315950099999999, "SchoolName": "Baanderherencollege Vmbo"}, {"Latitude": 51.5706021, "BrinNumber": "04YX", "Longtitude": 4.6617713, "SchoolName": "Munnikenheide College voor MAVO VBO LWOO"}, {"Latitude": 51.7173977, "BrinNumber": "07MU", "Longtitude": 5.3785053, "SchoolName": "Rodenborchcollege Rooms Katholieke Scholengemeenschap voor Atheneum Havo Mavo"}, {"Latitude": 51.3999101, "BrinNumber": "13PE", "Longtitude": 5.7343095, "SchoolName": "Varendonck College voor Atheneum Gymnasium Havo Vmbo Lwoo Pro"}, {"Latitude": 51.50218109999999, "BrinNumber": "14SW", "Longtitude": 4.2856099, "SchoolName": "Sgm Roncalli Samenw Sch RK PC voor Ath Havo Mavo"}, {"Latitude": 51.3982853, "BrinNumber": "15BS", "Longtitude": 5.3744931, "SchoolName": "Sondervick College RK Scholengemeenschap voor Lyceum Havo Mavo Vbo Lwoo"}, {"Latitude": 51.5769432, "BrinNumber": "16OX", "Longtitude": 5.1848797, "SchoolName": "2College voor Lyceum Havo Mavo Vbo"}, {"Latitude": 51.5856953, "BrinNumber": "16RB", "Longtitude": 5.328233099999999, "SchoolName": "Jacob Roelandslyceum"}, {"Latitude": 51.6862894, "BrinNumber": "16VK", "Longtitude": 5.0807163, "SchoolName": "OMO Scholengroep De Langstraat"}, {"Latitude": 51.64185029999999, "BrinNumber": "17JY", "Longtitude": 5.3633501, "SchoolName": "Gymnasium Beekvliet"}, {"Latitude": 51.68853980000001, "BrinNumber": "17KF", "Longtitude": 5.2874591, "SchoolName": "Van Maerlant voor Mavo Vbo Lwoo"}, {"Latitude": 51.4454673, "BrinNumber": "17VP", "Longtitude": 5.786062299999999, "SchoolName": "Instelling Voortgezet Onderwijs Deurne voor ATH HAVO MAVO VBO LWOO"}, {"Latitude": 51.36278300000001, "BrinNumber": "18XR", "Longtitude": 5.312010799999999, "SchoolName": "Rythovius College Scholengemeenschap voor Lyc Havo Mavo"}, {"Latitude": 51.72577219999999, "BrinNumber": "19RX", "Longtitude": 5.8839856, "SchoolName": "Merlet College Lyc Havo Mavo Vbo Lwoo"}, {"Latitude": 51.414075, "BrinNumber": "20AT", "Longtitude": 5.4911436, "SchoolName": "Scholengroep Het Plein voor Ath Gym Havo Mavo Vbo Pro en Lwoo"}, {"Latitude": 51.5290793, "BrinNumber": "20BQ", "Longtitude": 5.0589545, "SchoolName": "Mill-Hillcollege"}, {"Latitude": 51.4277478, "BrinNumber": "20GA", "Longtitude": 5.4735168, "SchoolName": "Van Maerlantlyceum"}, {"Latitude": 51.4653999, "BrinNumber": "20IB", "Longtitude": 5.4985731, "SchoolName": "Eckartcollege voor Lyc Havo Mavo Vbo Lwoo"}, {"Latitude": 51.4878994, "BrinNumber": "20JX", "Longtitude": 5.6570686, "SchoolName": "OMO Scholengroep Helmond"}, {"Latitude": 51.6793029, "BrinNumber": "20ST", "Longtitude": 5.3177075, "SchoolName": "Sint-Janslyceum School voor Gymnasium Atheneum Havo en Mavo"}, {"Latitude": 51.7056773, "BrinNumber": "20SY", "Longtitude": 5.3136508, "SchoolName": "Jeroen Bosch College Scholengemeenschap voor Vwo Havo en Mavo"}, {"Latitude": 51.7625622, "BrinNumber": "20WI", "Longtitude": 5.5232898, "SchoolName": "Maaslandcollege Scholengemeenschap voor Mavo Havo Vwo"}, {"Latitude": 51.526464, "BrinNumber": "20ZK", "Longtitude": 4.4581249, "SchoolName": "OMO scholengroep Tongerlo voor LYC HAVO VMBO LWOO PRO"}, {"Latitude": 51.56126459999999, "BrinNumber": "21EX", "Longtitude": 5.0549994, "SchoolName": "Theresialyceum voor gymnasium atheneum en havo"}, {"Latitude": 51.55760979999999, "BrinNumber": "21FV", "Longtitude": 5.0775956, "SchoolName": "Sint Odulphuslyceum Scholengemeenschap voor VWO en HAVO"}, {"Latitude": 51.3610219, "BrinNumber": "21GV", "Longtitude": 5.4675178, "SchoolName": "Scholengemeenschap Were Di voor Lyc Havo Mavo Vbo Lwoo"}, {"Latitude": 51.6293044, "BrinNumber": "21GZ", "Longtitude": 4.9429166, "SchoolName": "Kwadrant Scholengroep  RK Regionale Scholengemeenschap voor Vwo Havo en Vmbo"}, {"Latitude": 51.7038498, "BrinNumber": "23FY", "Longtitude": 5.3258025, "SchoolName": "Bossche Vakschool voor Mavo Vbo Lwoo"}, {"Latitude": 51.5963934, "BrinNumber": "26MZ", "Longtitude": 5.315950099999999, "SchoolName": "Baanderherencollege Praktijkonderwijs"}, {"Latitude": 51.7023845, "BrinNumber": "17MA", "Longtitude": 5.2663309, "SchoolName": "De Rijzert, school voor Praktijkonderwijs"}, {"Latitude": 51.47160179999999, "BrinNumber": "00NE", "Longtitude": 5.6999357, "SchoolName": "Jan van Brabant College vestiging Deltaweg"}, {"Latitude": 51.4774283, "BrinNumber": "14LF", "Longtitude": 5.6662867, "SchoolName": "Jan van Brabant College vestiging Molenstraat"}, {"Latitude": 51.4984906, "BrinNumber": "10LU", "Longtitude": 4.2821403, "SchoolName": "Regionale Scholengemeenschap 't Rijks School voor Lyceum Havo Mavo"}, {"Latitude": 51.5276612, "BrinNumber": "19EN", "Longtitude": 4.4826561, "SchoolName": "Jan Tinbergen College Openbare Scholengemeenschap voor Ath Havo Mavo"}, {"Latitude": 51.568934, "BrinNumber": "25LV", "Longtitude": 5.064009599999999, "SchoolName": "Scholengemeenschap De Rooi Pannen"}, {"Latitude": 51.5419023, "BrinNumber": "16MQ", "Longtitude": 5.083543199999999, "SchoolName": "Koning Willem Ii College voor Lyc Havo Mavo"}, {"Latitude": 51.5767534, "BrinNumber": "18XU", "Longtitude": 4.9956659, "SchoolName": "Beatrix College voor Mavo, Havo, Atheneum"}, {"Latitude": 51.4829721, "BrinNumber": "20BK", "Longtitude": 5.4858268, "SchoolName": "Openbaar Stedelijk College Eindhoven voor Atheneum Havo Mavo Vbo Lwoo"}, {"Latitude": 51.4279582, "BrinNumber": "30BC", "Longtitude": 5.457175100000001, "SchoolName": "SiNTLUCAS"}, {"Latitude": 51.6028356, "BrinNumber": "14SZ", "Longtitude": 4.7879377, "SchoolName": "Newmancollege Rooms Katholieke Scholengemeenschap voor Vwo Havo Mavo"}, {"Latitude": 51.4869139, "BrinNumber": "16QN", "Longtitude": 4.2930971, "SchoolName": "Rooms Katholiek Gymnasium Juvenaat Heilig Hart"}, {"Latitude": 51.5823546, "BrinNumber": "16RF", "Longtitude": 4.7849425, "SchoolName": "Onze Lieve Vrouwelyceum - Breda"}, {"Latitude": 51.59081639999999, "BrinNumber": "25GC", "Longtitude": 4.749850299999999, "SchoolName": "Scholengemeenschap Breda voor Katholiek Lyceum Havo Mavo Vbo Lwoo"}, {"Latitude": 51.6066847, "BrinNumber": "28DB", "Longtitude": 4.7804631, "SchoolName": "Orion Lyceum voor vwo en havo"}, {"Latitude": 51.6366606, "BrinNumber": "02GF", "Longtitude": 4.858737500000001, "SchoolName": "Mgr Frencken College voor Atheneum en Havo"}, {"Latitude": 51.6848987, "BrinNumber": "05AX", "Longtitude": 5.0971324, "SchoolName": "Scholengemeenschap De Overlaat Mavo Vbo Lwoo"}, {"Latitude": 51.8174356, "BrinNumber": "00YH", "Longtitude": 4.954626999999999, "SchoolName": "Protestants Christelijke Scholengemeenschap Oude Hoven voor Lyceum Havo Mavo Vbo"}, {"Latitude": 51.6298661, "BrinNumber": "02QO", "Longtitude": 4.8478392, "SchoolName": "Sint Oelbert Gymnasium"}, {"Latitude": 51.44743829999999, "BrinNumber": "02QP", "Longtitude": 5.7823804, "SchoolName": "St Willibrord Gymnasium"}, {"Latitude": 51.5784126, "BrinNumber": "12PR", "Longtitude": 5.098711199999999, "SchoolName": "Praktijkcollege Tilburg"}, {"Latitude": 51.4825884, "BrinNumber": "26JB", "Longtitude": 5.6793492, "SchoolName": "Praktijkschool Helmond"}, {"Latitude": 51.6991875, "BrinNumber": "01GV", "Longtitude": 5.312058899999999, "SchoolName": "Mavoschool Sancta Maria"}, {"Latitude": 51.5854466, "BrinNumber": "06XL", "Longtitude": 4.5416525, "SchoolName": "Markland College Oudenbosch Katholieke SGM voor Gymn Ath Havo Mavo Vmbo Pro"}, {"Latitude": 51.64082579999999, "BrinNumber": "30EU", "Longtitude": 4.6063141, "SchoolName": "Markland College Zevenbergen"}, {"Latitude": 51.5958978, "BrinNumber": "16SW", "Longtitude": 5.922802799999999, "SchoolName": "Rooms Katholieke Scholengemeenschap METAMEER voor ATH HAVO VMBO LWOO"}, {"Latitude": 51.8090526, "BrinNumber": "02XS", "Longtitude": 4.9479564, "SchoolName": "Altena College Christelijke Scholengemeenschap voor Atheneum Havo en Mavo"}, {"Latitude": 53.0486792, "BrinNumber": "16KP", "Longtitude": 4.8016534, "SchoolName": "Openbare Scholengemeensschap Texel voor Ath Havo Mavo Vbo Lwoo"}, {"Latitude": 52.7084121, "BrinNumber": "13EE", "Longtitude": 5.270513, "SchoolName": "Regionale Scholengemeenschap Enkhuizen voor MAVO HAVO VWO"}, {"Latitude": 52.455222, "BrinNumber": "20DG", "Longtitude": 4.6386515, "SchoolName": "Gymnasium Felisenum"}, {"Latitude": 52.3815555, "BrinNumber": "20QY", "Longtitude": 4.6339163, "SchoolName": "Stedelijk Gymnasium"}, {"Latitude": 52.359691, "BrinNumber": "21AB", "Longtitude": 4.8908298, "SchoolName": "Barlaeus Gymnasium"}, {"Latitude": 52.34550840000001, "BrinNumber": "21AF", "Longtitude": 4.8843079, "SchoolName": "Vossius Gymnasium"}, {"Latitude": 52.6396998, "BrinNumber": "01XF", "Longtitude": 4.7222136, "SchoolName": "osg Willem Blaeu voor vwo havo mavo en vbo"}, {"Latitude": 52.67101109999999, "BrinNumber": "08UV", "Longtitude": 4.8274192, "SchoolName": "Focus school voor praktijkonderwijs"}, {"Latitude": 52.6709514, "BrinNumber": "16ST", "Longtitude": 4.691220899999999, "SchoolName": "Berger Scholengemeenschap voor vwo havo en mavo"}, {"Latitude": 52.8478986, "BrinNumber": "17DD", "Longtitude": 5.024089399999999, "SchoolName": "rsg Wiringherlant voor vwo havo mavo en vbo"}, {"Latitude": 52.6473139, "BrinNumber": "19YT", "Longtitude": 4.737933, "SchoolName": "De Viaan, school voor praktijkonderwijs"}, {"Latitude": 52.6588668, "BrinNumber": "19ZQ", "Longtitude": 4.757306199999999, "SchoolName": "Stedelijk Dalton College Alkmaar voor vwo havo mavo en vbo"}, {"Latitude": 52.6610192, "BrinNumber": "19ZX", "Longtitude": 4.8323828, "SchoolName": "Huygens College Heerhugowaard voor vwo havo mavo en vbo"}, {"Latitude": 52.63416609999999, "BrinNumber": "20AA", "Longtitude": 4.7391827, "SchoolName": "Murmellius Gymnasium"}, {"Latitude": 52.222977, "BrinNumber": "20DD", "Longtitude": 5.1599244, "SchoolName": "Gemeentelijk Gymnasium"}, {"Latitude": 52.2345717, "BrinNumber": "03FO", "Longtitude": 5.146986399999999, "SchoolName": "CVO 't Gooi  voor Lyc Havo VMBO Lwoo"}, {"Latitude": 52.3260921, "BrinNumber": "16PN", "Longtitude": 4.8865383, "SchoolName": "Joodse Scholengemeenschap Maimonides voor Ath Mavo En Afd Havo"}, {"Latitude": 52.35616539999999, "BrinNumber": "16PS", "Longtitude": 4.885115799999999, "SchoolName": "Montessori Scholengemeenschap Amsterdam voor Lyceum Havo Mavo Vbo Lwoo"}, {"Latitude": 52.352233, "BrinNumber": "02AP", "Longtitude": 4.863883899999999, "SchoolName": "Het Amsterdams Lyceum"}, {"Latitude": 52.940269, "BrinNumber": "26JY", "Longtitude": 4.750138, "SchoolName": "De Pijler school voor praktijk onderwijs"}, {"Latitude": 52.3728244, "BrinNumber": "17YS", "Longtitude": 4.829926599999999, "SchoolName": "Esprit Scholen voor Lyceum Havo Mavo Vbo Lwoo"}, {"Latitude": 52.3929756, "BrinNumber": "30GC", "Longtitude": 4.8799525, "SchoolName": "Het 4e Gymnasium"}, {"Latitude": 52.29848089999999, "BrinNumber": "00UM", "Longtitude": 5.2429796, "SchoolName": "Erfgooiers College Atheneum Havo VMBO-TL"}, {"Latitude": 52.6434063, "BrinNumber": "25EF", "Longtitude": 4.7572209, "SchoolName": "Clusius College Alkmaar"}, {"Latitude": 52.2202485, "BrinNumber": "00PS", "Longtitude": 5.180696999999999, "SchoolName": "Verenigde Scholen J.A. Alberdingk Thijm Voortgezet Onderwijs"}, {"Latitude": 52.2768052, "BrinNumber": "02EV", "Longtitude": 5.1546331, "SchoolName": "W De Zwijgercoll Chr SGM Vwo Havo op Chr Grndslg"}, {"Latitude": 52.2704318, "BrinNumber": "02UB", "Longtitude": 5.1551342, "SchoolName": "St Vituscollege Bussum/Naarden"}, {"Latitude": 52.2839311, "BrinNumber": "30JN", "Longtitude": 5.147884599999999, "SchoolName": "Sint-Vitusmavo"}, {"Latitude": 52.1951262, "BrinNumber": "11AI", "Longtitude": 5.168736, "SchoolName": "Gooise Praktijkschool"}, {"Latitude": 52.2792709, "BrinNumber": "14SM", "Longtitude": 5.165917100000001, "SchoolName": "Gooise Scholenfederatie vwo, havo, vmbo"}, {"Latitude": 52.3102874, "BrinNumber": "24TG", "Longtitude": 5.0275677, "SchoolName": "Gooise Scholen Federatie Weesp"}, {"Latitude": 52.3499318, "BrinNumber": "01ET", "Longtitude": 4.8757435, "SchoolName": "Sint Ignatiusgymnasium"}, {"Latitude": 52.3514899, "BrinNumber": "02AN", "Longtitude": 4.8791528, "SchoolName": "Fons Vitae Lyceum Rooms Katholiek Scholengemeenschap voor Vwo en Havo"}, {"Latitude": 52.34085049999999, "BrinNumber": "14SE", "Longtitude": 4.8772337, "SchoolName": "Scholengemeenschap Sint Nicolaas Lyceum voor Lyceum en Havo"}, {"Latitude": 52.5129214, "BrinNumber": "01EO", "Longtitude": 4.954565, "SchoolName": "Purmerendse Scholengroep voor Gymn Lyc Havo Mavo Vbo Lwoo"}, {"Latitude": 52.940269, "BrinNumber": "00MV", "Longtitude": 4.750138, "SchoolName": "Scholen aan Zee 2"}, {"Latitude": 52.940269, "BrinNumber": "21VB", "Longtitude": 4.750138, "SchoolName": "Scholen aan Zee 1"}, {"Latitude": 52.5432421, "BrinNumber": "00ZD", "Longtitude": 4.6665456, "SchoolName": "Bonhoeffer College Scholengemeenschap voor Mavo Havo Vwo"}, {"Latitude": 52.55318310000001, "BrinNumber": "20MH", "Longtitude": 4.6834577, "SchoolName": "Jac P Thijsse College voor Vwo Havo Mavo"}, {"Latitude": 52.4945622, "BrinNumber": "27MD", "Longtitude": 4.6632435, "SchoolName": "Kennemer College"}, {"Latitude": 52.5040165, "BrinNumber": "28BN", "Longtitude": 4.6715252, "SchoolName": "Kennemer Praktijkschool"}, {"Latitude": 52.3045662, "BrinNumber": "00IP", "Longtitude": 4.6653399, "SchoolName": "Katholiek Scholengemeenschap Hoofddorp voor Lyceum HAVO en MAVO"}, {"Latitude": 52.3719803, "BrinNumber": "01LZ", "Longtitude": 4.6195676, "SchoolName": "Scholengemeenschap Eerste Christelijk Lyceum Vwo en Havo"}, {"Latitude": 52.2726199, "BrinNumber": "03RU", "Longtitude": 4.6387258, "SchoolName": "Herbert Vissers College Christelijke Scholengemeenschap voor Lyceu Havo Mavo Vbo"}, {"Latitude": 52.2424178, "BrinNumber": "05FE", "Longtitude": 4.819367, "SchoolName": "Rooms Katholieke Scholengemeenschap Thamen voor Mavo Vbo Lwoo"}, {"Latitude": 52.3570621, "BrinNumber": "17HH", "Longtitude": 4.618328, "SchoolName": "Haemstede Barger MAVO"}, {"Latitude": 52.3095177, "BrinNumber": "21WE", "Longtitude": 4.6798804, "SchoolName": "Kaj Munk College voor Atheneum Havo Mavo"}, {"Latitude": 52.2967127, "BrinNumber": "21FF", "Longtitude": 4.9774075, "SchoolName": "Scholengemeenschap Reigersbos Atheneum Havo Mavo Leao"}, {"Latitude": 52.2641248, "BrinNumber": "01OE", "Longtitude": 4.7699782, "SchoolName": "Wellantcollege"}, {"Latitude": 52.3626782, "BrinNumber": "01TC", "Longtitude": 4.827365299999999, "SchoolName": "Scholengemeenschap voor Vwo Havo Mavo Het Hervormd Lyceum"}, {"Latitude": 52.34834559999999, "BrinNumber": "02AR", "Longtitude": 4.8781383, "SchoolName": "Scholengemeenschap voor Athenum en Havo Het Hervormd Lyceum Zuid"}, {"Latitude": 52.2869358, "BrinNumber": "02TE", "Longtitude": 4.8519076, "SchoolName": "H Wesselink College Christelijke Scholengemeenschap voor Vwo Havo Mavo"}, {"Latitude": 52.3236036, "BrinNumber": "14VY", "Longtitude": 4.8635166, "SchoolName": "Chr Sgm Buitenveldert v Gymn Ath Havo en Mavo"}, {"Latitude": 52.3412225, "BrinNumber": "16TS", "Longtitude": 4.8628181, "SchoolName": "Vrije School Noord Holland voor Atheneum Havo Mavo"}, {"Latitude": 52.3424566, "BrinNumber": "21BH", "Longtitude": 4.8667602, "SchoolName": "Dalton Scholengemeenschap Spinozalyceum voor Vwo Havo Mavo"}, {"Latitude": 52.4501846, "BrinNumber": "20CN", "Longtitude": 4.813236300000001, "SchoolName": "Scholengroep Zaandam"}, {"Latitude": 52.4971589, "BrinNumber": "20EY", "Longtitude": 4.757911500000001, "SchoolName": "Scholengroep Krommenie"}, {"Latitude": 52.4751575, "BrinNumber": "20FC", "Longtitude": 4.7989861, "SchoolName": "Saenredam College voor ATH HAVO MAVO VBO LWOO"}, {"Latitude": 52.4928333, "BrinNumber": "20FF", "Longtitude": 4.7607117, "SchoolName": "Praktijkschool De Brug"}, {"Latitude": 52.3516369, "BrinNumber": "28DH", "Longtitude": 5.0060414, "SchoolName": "IJburg College voor Vwo Havo Mavo en Vbo"}, {"Latitude": 52.3691227, "BrinNumber": "02KM", "Longtitude": 4.6509845, "SchoolName": "Haarlem College Scholengemeenschap voor Mavo Vbo Lwoo"}, {"Latitude": 52.3555058, "BrinNumber": "02YH", "Longtitude": 4.5932032, "SchoolName": "Montessori College voor Mavo Aerdenhout"}, {"Latitude": 52.4531789, "BrinNumber": "13JF", "Longtitude": 4.6023425, "SchoolName": "Noordzee Onderwijs Groep voor Praktijkonderwijs"}, {"Latitude": 52.3673997, "BrinNumber": "15NE", "Longtitude": 4.6337798, "SchoolName": "School voor Praktische Vorming Oost-ter-Hout"}, {"Latitude": 52.3192748, "BrinNumber": "16PJ", "Longtitude": 4.7119813, "SchoolName": "Praktijkschool De Linie"}, {"Latitude": 52.40291999999999, "BrinNumber": "19EQ", "Longtitude": 4.6224263, "SchoolName": "Hartenlustsch voor Mavo"}, {"Latitude": 52.306349, "BrinNumber": "19TI", "Longtitude": 4.6458577, "SchoolName": "Solyvius College SGM voor Lyc Havo Mavo Vbo Lwoo"}, {"Latitude": 52.4603061, "BrinNumber": "20EK", "Longtitude": 4.6303436, "SchoolName": "Openbare Scholengemeenschap Vellesan College Ath Havo Mavo Vbo Lwoo"}, {"Latitude": 52.4103911, "BrinNumber": "20RC", "Longtitude": 4.6470674, "SchoolName": "Gem Schoter Scholengemeenschap voor Atheneum Havo en Mavo"}, {"Latitude": 52.36212330000001, "BrinNumber": "20RF", "Longtitude": 4.6145651, "SchoolName": "Coornhertlyc Gem Scholengemeenschap Lyceum Havo Mavo"}, {"Latitude": 52.403597, "BrinNumber": "25FU", "Longtitude": 4.636356399999999, "SchoolName": "Linnaeus College Haarlem voor Lyceum Havo Mavo Vbo Lwoo"}, {"Latitude": 52.24859739999999, "BrinNumber": "26JE", "Longtitude": 4.817506499999999, "SchoolName": "Praktijkschool Uithoorn"}, {"Latitude": 52.4533862, "BrinNumber": "29YT", "Longtitude": 4.8324508, "SchoolName": "Zuiderzee College voor VMBO"}, {"Latitude": 52.35419539999999, "BrinNumber": "21GD", "Longtitude": 4.8106231, "SchoolName": "Calandlyceum voor Gymnasium Atheneum Havo Vmbo"}, {"Latitude": 52.385599, "BrinNumber": "21AS", "Longtitude": 4.9107639, "SchoolName": "Voorgezet Onderwijs van Amsterdam voor Lyceum Havo Mavo Vbo Lwoo"}, {"Latitude": 52.3394553, "BrinNumber": "00EF", "Longtitude": 4.8962653, "SchoolName": "Voortgezet Onderwijs van Amsterdam voor Vbo en Lwoo"}, {"Latitude": 52.3473479, "BrinNumber": "14RL", "Longtitude": 4.9142442, "SchoolName": "Voorgezet Onderwijs van Amsterdam voor Vbo, Lwoo en Praktijkonderwijs"}, {"Latitude": 52.7830558, "BrinNumber": "16CX", "Longtitude": 4.7974366, "SchoolName": "Regius College Schagen voor Gym, Ath, Havo, Vmbo tl, Vmbo basis/kader"}, {"Latitude": 52.7840515, "BrinNumber": "19SQ", "Longtitude": 4.795596199999999, "SchoolName": "Regius College Emmalaan Praktijkonderwijs"}, {"Latitude": 52.64437359999999, "BrinNumber": "25DA", "Longtitude": 5.0676017, "SchoolName": "Atlas College voor Lyceum Havo Mavo Vbo Lwoo"}, {"Latitude": 52.2907613, "BrinNumber": "19XY", "Longtitude": 4.853752, "SchoolName": "Amstelveen College Opb Ssm voor Gymnasium Havo en Mavo"}, {"Latitude": 52.3186021, "BrinNumber": "03AQ", "Longtitude": 4.9661721, "SchoolName": "Open Sgm Bylmer Vath Havo Mavo Lhno Lto Leao"}, {"Latitude": 52.4547312, "BrinNumber": "02VQ", "Longtitude": 4.8306949, "SchoolName": "Pascal College  voor Vwo Havo Mavo Vbo Lwoo"}, {"Latitude": 52.3498762, "BrinNumber": "14RF", "Longtitude": 4.9254964, "SchoolName": "Scholengemeenschap ZAAM Oost voor Vwo  Havo Mavo Vbo Lwoo"}, {"Latitude": 52.361472, "BrinNumber": "17HB", "Longtitude": 4.840538, "SchoolName": "Scholengemeenschap ZAAM West voor Vwo Havo Mavo Vbo Lwoo"}, {"Latitude": 52.39472749999999, "BrinNumber": "17VF", "Longtitude": 4.9305745, "SchoolName": "Scholengemeenschap ZAAM Noord voor Vwo Havo Mavo Vbo Lwoo"}, {"Latitude": 52.3489649, "BrinNumber": "21ET", "Longtitude": 4.8747067, "SchoolName": "Scholengemeenschap ZAAM zuid voor Vwo Havo Mavo Vbo Lwoo"}, {"Latitude": 52.46155090000001, "BrinNumber": "26JZ", "Longtitude": 4.8171354, "SchoolName": "De Faam voor Praktijkonderwijs"}, {"Latitude": 52.64925119999999, "BrinNumber": "07FO", "Longtitude": 5.0805489, "SchoolName": "Praktijkschool Westfriesland locatie Hoorn"}, {"Latitude": 52.69995429999999, "BrinNumber": "27PM", "Longtitude": 5.2156812, "SchoolName": "Praktijkschool West-Friesland locatie Stede Broec"}, {"Latitude": 52.39065069999999, "BrinNumber": "02GN", "Longtitude": 4.6212217, "SchoolName": "SGM Kennemer Lyc Bz Sch Alg Grondsl v Vwo Havo"}, {"Latitude": 52.3027211, "BrinNumber": "00WD", "Longtitude": 4.878974899999999, "SchoolName": "Scholengemeenschap Panta Rhei voor vmbo/mavo en Lwoo"}, {"Latitude": 52.69196789999999, "BrinNumber": "18CV", "Longtitude": 5.2194158, "SchoolName": "Martinus College Christelijke Scholengemeenschap voor LYC HAVO MAVO VBO LWOO"}, {"Latitude": 52.3945395, "BrinNumber": "02PA", "Longtitude": 4.8549174, "SchoolName": "Stichting Media Amsterdam"}, {"Latitude": 52.6254103, "BrinNumber": "02QX", "Longtitude": 4.7445523, "SchoolName": "Petrus Canisius Colleg Scholengemeenschap voor Lyceum Havo Mavo Vbo Lwoo"}, {"Latitude": 52.30178739999999, "BrinNumber": "02QZ", "Longtitude": 4.8495554, "SchoolName": "Keizer Karel College Vwo Havo"}, {"Latitude": 52.2456384, "BrinNumber": "14VG", "Longtitude": 4.8159947, "SchoolName": "Alkwin Kollege Rooms Katholieke Scholengemeenschap voor Vwo en Havo"}, {"Latitude": 52.4942488, "BrinNumber": "20GS", "Longtitude": 5.056429899999999, "SchoolName": "Don Bosco College Atheneum Havo Vmbo Lwoo"}, {"Latitude": 52.3659307, "BrinNumber": "02SB", "Longtitude": 4.6175102, "SchoolName": "Sancta Maria Lyceum voor Havo, Atheneum en Gymnasium"}, {"Latitude": 52.6629808, "BrinNumber": "00XA", "Longtitude": 4.8503425, "SchoolName": "Trinitas College RK scholengemeenschap voor ATHENEUM, HAVO, MAVO, VBO, LWOO"}, {"Latitude": 52.6459264, "BrinNumber": "02ME", "Longtitude": 5.0444905, "SchoolName": "Rooms Katholieke Scholengemeenschap Tabor voor Lyceum Havo Mavo Vbo Lwoo"}, {"Latitude": 52.6484094, "BrinNumber": "02TD", "Longtitude": 4.750592699999999, "SchoolName": "Jan Arentsz Christelijke Scholengemeenschap voor Lyceum Havo Mavo Vbo"}, {"Latitude": 52.38639149999999, "BrinNumber": "01KD", "Longtitude": 4.6289639, "SchoolName": "Kolom Praktijkcollege De Schakel"}, {"Latitude": 52.3262339, "BrinNumber": "09PY", "Longtitude": 4.8717115, "SchoolName": "Kolom Praktijkcollege De Atlant"}, {"Latitude": 52.3790558, "BrinNumber": "10JY", "Longtitude": 4.8167197, "SchoolName": "Kolom Praktijkcollege Het Plein"}, {"Latitude": 52.41988019999999, "BrinNumber": "26HP", "Longtitude": 4.8800593, "SchoolName": "Kolom Praktijkcollege Noord"}, {"Latitude": 52.32323299999999, "BrinNumber": "27VH", "Longtitude": 4.941761, "SchoolName": "Kolom Praktijkcollege De Dreef"}, {"Latitude": 52.4738665, "BrinNumber": "02TZ", "Longtitude": 4.8279287, "SchoolName": "Rooms Katholieke Scholengemeenschap St Michaelcollege voor Atheneum en Havo"}, {"Latitude": 52.3470057, "BrinNumber": "02UC", "Longtitude": 4.628777299999999, "SchoolName": "Atheneum College Hageveld"}, {"Latitude": 52.32592520000001, "BrinNumber": "23GF", "Longtitude": 4.878416, "SchoolName": "Stichting Joodse Kindergemeenschap Cheider MAVO HAVO VWO"}, {"Latitude": 52.40708739999999, "BrinNumber": "07FH", "Longtitude": 4.631382800000001, "SchoolName": "Mendel College Interconfessionele Scholengemeenschap Voor Mavo Havo Vwo"}, {"Latitude": 52.280734, "BrinNumber": "19FF", "Longtitude": 6.4185618, "SchoolName": "De Waerdenborch Scholengemeenschap voor Atheneum Havo Mavo Vbo"}, {"Latitude": 52.5740399, "BrinNumber": "03KZ", "Longtitude": 6.633145900000001, "SchoolName": "PrO Hardenberg school voorChristelijk Praktijkonderwijs"}, {"Latitude": 52.7858744, "BrinNumber": "23WU", "Longtitude": 6.1208538, "SchoolName": "Christelijke Scholengemeenschap voor Mavo en Vbo Eekeringe"}, {"Latitude": 52.2706144, "BrinNumber": "01VJ", "Longtitude": 6.160716799999999, "SchoolName": "Etty Hillesum Lyceum voor Gymnasium Atheneum Havo Vmbo Pro"}, {"Latitude": 52.3621966, "BrinNumber": "02EK", "Longtitude": 6.6424677, "SchoolName": "Pius X College Scholengemeenschap voor Lyceum Havo Mavo Vbo Lwoo"}, {"Latitude": 52.391461, "BrinNumber": "04OY", "Longtitude": 6.2685767, "SchoolName": "Carmel College Salland Katholieke Scholengemeenschap"}, {"Latitude": 52.31455889999999, "BrinNumber": "05AV", "Longtitude": 6.9378158, "SchoolName": "Twents Carmel College voor Gymnasium, Atheneum, Havo, Vmbo met Lwoo, Pro"}, {"Latitude": 52.3758681, "BrinNumber": "16VI", "Longtitude": 6.6886793, "SchoolName": "R.K. Scholengemeenschap  Canisius voor vmbo havo vwo"}, {"Latitude": 52.19045020000001, "BrinNumber": "17VN", "Longtitude": 6.865264, "SchoolName": "Bonhoeffer College voor Gymnasium, Atheneum, Havo, VMBO, LWOO en PrO"}, {"Latitude": 52.2627015, "BrinNumber": "18CR", "Longtitude": 6.808037199999999, "SchoolName": "PC/RK Scholengemeenschap De Grundel voor Lyceum Havo Mavo Vbo Lwoo"}, {"Latitude": 52.2945699, "BrinNumber": "19HG", "Longtitude": 6.7581226, "SchoolName": "Twickel Scholengemeenschap voor ATH HAVO MAVO VBO"}, {"Latitude": 52.5029404, "BrinNumber": "13US", "Longtitude": 6.0878204, "SchoolName": "Agrarisch Opleidingen Centrum De Groene Welle"}, {"Latitude": 52.3656832, "BrinNumber": "02DO", "Longtitude": 6.6605561, "SchoolName": "Protestants Scholengemeenschap Het Noordik voor Lyceum Havo Mavo Vbo Lwoo"}, {"Latitude": 52.3552304, "BrinNumber": "02XJ", "Longtitude": 6.4614415, "SchoolName": "Reggesteyn Christelijke Scholengemeenschap voor Pro-Vmbo-Havo-Atheneum-Gymnasiu"}, {"Latitude": 52.5709305, "BrinNumber": "02UX", "Longtitude": 6.6244441, "SchoolName": "Vechtdal College Scholengemeenschap voor Atheneum Havo Mavo Vbo Lwoo"}, {"Latitude": 52.51125099999999, "BrinNumber": "01AA", "Longtitude": 6.1018627, "SchoolName": "Landstede"}, {"Latitude": 52.361617, "BrinNumber": "04HR", "Longtitude": 6.6586423, "SchoolName": "Openbare Scholengemeenschap Erasmus Lyceum Havo Mavo Vbo Lwoo"}, {"Latitude": 52.3706213, "BrinNumber": "19UP", "Longtitude": 6.6681431, "SchoolName": "PrO Erasmus"}, {"Latitude": 52.35290329999999, "BrinNumber": "29WG", "Longtitude": 6.5901044, "SchoolName": "de Passie, Evangelische school voor Vmbo-tl, Havo, Vwo"}, {"Latitude": 52.7817532, "BrinNumber": "16GZ", "Longtitude": 6.1129155, "SchoolName": "Regionale Scholengemeenschap Tromp Meesters voor Lyc Havo Mavo Vbo Lwoo"}, {"Latitude": 52.7896768, "BrinNumber": "29VY", "Longtitude": 6.12212, "SchoolName": "RSG Tromp Meesters Praktijkschool"}, {"Latitude": 52.5528628, "BrinNumber": "07ZI", "Longtitude": 5.8771882, "SchoolName": "Ichthus College School voor Praktijkonderwijs"}, {"Latitude": 52.5010822, "BrinNumber": "05VN", "Longtitude": 6.1154357, "SchoolName": "De Boog Christelijke School voor Praktijkonderwijs"}, {"Latitude": 52.233438, "BrinNumber": "00AH", "Longtitude": 6.885094199999999, "SchoolName": "Openbare Scholengemeenschap Het Stedelijk Lyceum Havo Mavo Vbo Lwoo"}, {"Latitude": 52.2143345, "BrinNumber": "19NG", "Longtitude": 6.8612661, "SchoolName": "De Wissel Ml Vbo"}, {"Latitude": 52.275357, "BrinNumber": "20CS", "Longtitude": 6.7941777, "SchoolName": "OSG Hengelo voor LYC HAVO MAVO VBO LWOO"}, {"Latitude": 52.2496942, "BrinNumber": "23EJ", "Longtitude": 6.8103981, "SchoolName": "T Genseler"}, {"Latitude": 52.51478059999999, "BrinNumber": "19UO", "Longtitude": 6.0652308, "SchoolName": "Praktijkschool Het Kwartiers"}, {"Latitude": 52.5313296, "BrinNumber": "20CF", "Longtitude": 6.094808899999999, "SchoolName": "Gymnasium Celeanum"}, {"Latitude": 52.5140444, "BrinNumber": "20DB", "Longtitude": 6.123403499999999, "SchoolName": "Thorbecke Scholengemeenschap voor Ath Havo Mavo Vbo Lwoo"}, {"Latitude": 52.5226767, "BrinNumber": "03ZY", "Longtitude": 6.417531299999999, "SchoolName": "School voor Praktijkonderwijs De Maat"}, {"Latitude": 52.0209207, "BrinNumber": "19IP", "Longtitude": 5.546439100000001, "SchoolName": "Rembrandt College Openbare Scholengemeenschap voor Mavo Havo Ath"}, {"Latitude": 52.0841489, "BrinNumber": "17AN", "Longtitude": 4.8965534, "SchoolName": "Minkema College voor Lwoo Vmbo Havo Atheneum Gymnasium"}, {"Latitude": 52.0764165, "BrinNumber": "00MK", "Longtitude": 5.2541857, "SchoolName": "Katholiek Scholengemeenschap De Breul voor Gymnasium Atheneum Havo en Mavo"}, {"Latitude": 52.0333081, "BrinNumber": "22NE", "Longtitude": 5.167164, "SchoolName": "College De Heemlanden SGM voor Mavo Havo Atheneum"}, {"Latitude": 52.094127, "BrinNumber": "00RO", "Longtitude": 5.011379499999999, "SchoolName": "Amadeus Lyceum"}, {"Latitude": 52.0768707, "BrinNumber": "01EK", "Longtitude": 5.1405395, "SchoolName": "Kranenburg, School voor Praktijkonderwijs"}, {"Latitude": 52.0921605, "BrinNumber": "01KF", "Longtitude": 5.1265592, "SchoolName": "Sint Gregorius College Scholengemeenschap voor Atheneum Havo Mavo"}, {"Latitude": 52.0817521, "BrinNumber": "02UE", "Longtitude": 5.1376051, "SchoolName": "Scholengemeenschap St Bonifatius College Lyceum Havo"}, {"Latitude": 52.1357689, "BrinNumber": "03OY", "Longtitude": 5.0210402, "SchoolName": "Niftarlake College Christelijke Scholengemeenschap voor Atheneum Havo Mavo"}, {"Latitude": 52.1091002, "BrinNumber": "14OY", "Longtitude": 5.1385676, "SchoolName": "Gerrit Rietveld College"}, {"Latitude": 52.0875935, "BrinNumber": "16PA", "Longtitude": 5.0993851, "SchoolName": "Christelijk Gymnasium"}, {"Latitude": 52.0300307, "BrinNumber": "17GM", "Longtitude": 5.097886799999999, "SchoolName": "Oosterlicht College PC SGM V ATH HAVO MAVO VBO"}, {"Latitude": 52.0793973, "BrinNumber": "18AN", "Longtitude": 5.0992058, "SchoolName": "Globe College, brede school voor vmbo, basis, kader en theoretische leerweg"}, {"Latitude": 52.169453, "BrinNumber": "23VD", "Longtitude": 4.998675599999999, "SchoolName": "Broeckland College voor Mavo Vbo Lwoo"}, {"Latitude": 52.09349659999999, "BrinNumber": "02VR", "Longtitude": 5.254527599999999, "SchoolName": "Stichting voor Christelijk Voortgezet Onderwijs voor Zuidoost-Utrecht"}, {"Latitude": 52.0977571, "BrinNumber": "26HY", "Longtitude": 5.247259199999999, "SchoolName": "Seyster College voor Praktijkonderwijs"}, {"Latitude": 52.1455415, "BrinNumber": "00ML", "Longtitude": 5.3546548, "SchoolName": "Meridiaancollege RK SGM v Lyc Havo Mavo Vbo Lwoo"}, {"Latitude": 52.0895676, "BrinNumber": "04IX", "Longtitude": 4.8711046, "SchoolName": "Kalsbeek College Christelijke Scholengemeenschap voor Vmbo, Havo, Ath. en Gymn."}, {"Latitude": 52.2051143, "BrinNumber": "00YO", "Longtitude": 5.2903893, "SchoolName": "Protestants Christelijk Mavo Waldheim"}, {"Latitude": 52.1919347, "BrinNumber": "01NZ", "Longtitude": 5.2896721, "SchoolName": "Christelijk College Griftland School voor Atheneum Havo en Mavo"}, {"Latitude": 52.1323365, "BrinNumber": "00TL", "Longtitude": 5.2008896, "SchoolName": "Het Nieuwe Lyceum Scholengemeenschap voor Gymnasium Atheneum en Havo"}, {"Latitude": 52.0635267, "BrinNumber": "27DG", "Longtitude": 5.142951699999999, "SchoolName": "de Passie, Evangelische School voor Vmbo-tl, Havo, Vwo"}, {"Latitude": 52.1513599, "BrinNumber": "20CK", "Longtitude": 5.3684718, "SchoolName": "Joh van Oldenbarnevelt Gymnasium"}, {"Latitude": 52.1419833, "BrinNumber": "20EA", "Longtitude": 5.371000899999999, "SchoolName": "Openbaar lyceum De Amersfoortse Berg"}, {"Latitude": 52.16913049999999, "BrinNumber": "20EI", "Longtitude": 5.3869405, "SchoolName": "Vallei College voor Ath Havo Mavo Vbo Lwoo"}, {"Latitude": 52.2151992, "BrinNumber": "05RA", "Longtitude": 4.8610682, "SchoolName": "Veenlanden College PC SGM v Mavo Havo Atheneum"}, {"Latitude": 52.16913049999999, "BrinNumber": "14RC", "Longtitude": 5.3869405, "SchoolName": "Meerwegen College"}, {"Latitude": 52.16436479999999, "BrinNumber": "28CA", "Longtitude": 5.4093389, "SchoolName": "Accent Praktijkonderwijs"}, {"Latitude": 52.0263571, "BrinNumber": "02MF", "Longtitude": 5.5436185, "SchoolName": "Christelijke Scholengemeenschap voor VMBO en Praktijkonderwijs"}, {"Latitude": 52.0812306, "BrinNumber": "15JM", "Longtitude": 5.1333633, "SchoolName": "Utrechts Stedelijk Gymnasium"}, {"Latitude": 52.1124776, "BrinNumber": "17AO", "Longtitude": 5.1184065, "SchoolName": "POUWER"}, {"Latitude": 52.10834980000001, "BrinNumber": "24TJ", "Longtitude": 5.1158893, "SchoolName": "Trajectum College voor ATH GYM HAVO MAVO VBO LWOO"}, {"Latitude": 52.0923868, "BrinNumber": "24TR", "Longtitude": 5.061916999999999, "SchoolName": "Leidsche Rijn College voor GYM ATH HAVO MAVO VBO LWOO"}, {"Latitude": 52.0779619, "BrinNumber": "30UB", "Longtitude": 5.098008999999999, "SchoolName": "UniC school voor vwo en havo"}, {"Latitude": 52.05083029999999, "BrinNumber": "07KP", "Longtitude": 5.402185800000001, "SchoolName": "Scholengemeenschap Maarsbergen voor Mavo Vbo"}, {"Latitude": 52.0753453, "BrinNumber": "17BI", "Longtitude": 5.2378083, "SchoolName": "Openbare Scholengroep Schoonoord"}, {"Latitude": 52.0287661, "BrinNumber": "30BE", "Longtitude": 5.181902, "SchoolName": "Houtens"}, {"Latitude": 52.02033770000001, "BrinNumber": "18WS", "Longtitude": 5.0764836, "SchoolName": "Anna Van Ryn College Opbare Scholengemeenschap voor Ath Havo Mavo Vbo"}, {"Latitude": 52.1792366, "BrinNumber": "11NY", "Longtitude": 4.9966042, "SchoolName": "Regionale Scholengemeenschap Broklede voor Atheneum en Havo"}, {"Latitude": 52.13834259999999, "BrinNumber": "17HX", "Longtitude": 5.012708099999999, "SchoolName": "Mgr A E Rientjes Mavo"}, {"Latitude": 52.1644643, "BrinNumber": "03SX", "Longtitude": 5.4053565, "SchoolName": "De Baander"}, {"Latitude": 52.02735510000001, "BrinNumber": "00VY", "Longtitude": 5.0965361, "SchoolName": "Cals College Roomskatholiek Scholengemeenschap voor Lyceum Havo Mavo Vbo"}, {"Latitude": 52.0258909, "BrinNumber": "06SU", "Longtitude": 5.5267251, "SchoolName": "Ichthus College Scholengemeenschap voor Atheneum Havo Mavo"}, {"Latitude": 52.2051143, "BrinNumber": "02TG", "Longtitude": 5.2903893, "SchoolName": "Het Baarnsch Lyceum"}, {"Latitude": 52.1347089, "BrinNumber": "17WP", "Longtitude": 5.1964521, "SchoolName": "Werkplaats Kindergemeenschap"}, {"Latitude": 52.0983399, "BrinNumber": "02TH", "Longtitude": 5.213422599999999, "SchoolName": "Herman Jordanlyceum voor Gymnasium Atheneum en Havo Top"}, {"Latitude": 52.0174938, "BrinNumber": "07BM", "Longtitude": 5.050701099999999, "SchoolName": "De Baanbreker, school voor praktijkonderwijs"}, {"Latitude": 52.0800294, "BrinNumber": "26KA", "Longtitude": 4.87272, "SchoolName": "Futura College voor Praktijkonderwijs"}, {"Latitude": 52.0130709, "BrinNumber": "02VM", "Longtitude": 5.545005199999999, "SchoolName": "Christelijk Lyceum Scholengemeenschap voor Mavo Havo Lyceum"}, {"Latitude": 51.4630924, "BrinNumber": "16YC", "Longtitude": 3.5811774, "SchoolName": "Scheldemond College"}, {"Latitude": 51.4925074, "BrinNumber": "20CP", "Longtitude": 3.594580299999999, "SchoolName": "NEHALENNIA Stedelijke Scholengemeenschap voor LYC HAVO MAVO VBO LWOO"}, {"Latitude": 51.310429, "BrinNumber": "00LY", "Longtitude": 3.8563082, "SchoolName": "PC RK SGM Zeldenrust Steelantcollege"}, {"Latitude": 51.50237869999999, "BrinNumber": "03XS", "Longtitude": 3.5992718, "SchoolName": "Christelijke Scholengemeenschap Walcheren voor Lyceum Havo Mavo Vbo Lwoo"}, {"Latitude": 51.2946217, "BrinNumber": "25FX", "Longtitude": 4.0747552, "SchoolName": "Rooms Katholieke Scholengemeenschap Reynaert College Lyceum Havo Mavo Vbo Lwoo"}, {"Latitude": 51.2840549, "BrinNumber": "26JV", "Longtitude": 4.060734099999999, "SchoolName": "Praktijkschool Hulst"}, {"Latitude": 51.3155964, "BrinNumber": "00AQ", "Longtitude": 3.4698371, "SchoolName": "Zwin College Scholengemeenschap voor Vmbo Havo Atheneum Gymnasium"}, {"Latitude": 51.4976218, "BrinNumber": "11UL", "Longtitude": 3.891179999999999, "SchoolName": "Agrarisch Opleidingen Centrum Holland Zeeland"}, {"Latitude": 51.4869493, "BrinNumber": "01HQ", "Longtitude": 3.6097639, "SchoolName": "Het Bolwerk"}, {"Latitude": 51.5010863, "BrinNumber": "26HF", "Longtitude": 3.9012418, "SchoolName": "Algemeen Bijzonder School voor Praktijkonderwijs De Wissel"}, {"Latitude": 51.3229123, "BrinNumber": "26LL", "Longtitude": 3.851820099999999, "SchoolName": "PC/RK School voor Praktijkonderwijs De Sprong"}, {"Latitude": 51.5040688, "BrinNumber": "13OR", "Longtitude": 3.9068865, "SchoolName": "Pontes voor Lyceum Atheneum Havo Mavo Vbo Pro en Lwoo"}, {"Latitude": 51.5010863, "BrinNumber": "05OH", "Longtitude": 3.9012418, "SchoolName": "Ostrea Lyceum voor Lyceum Havo Mavo Vbo Lwoo"}, {"Latitude": 51.3199519, "BrinNumber": "16JO", "Longtitude": 3.839651, "SchoolName": "Stedelijke Scholengemeenschap De Rede voor Lyc Havo Mavo Vbo Lwoo"}, {"Latitude": 51.5068764, "BrinNumber": "03JY", "Longtitude": 3.879157, "SchoolName": "Calvijn College voor Reformatorisch Vmbo Havo Vwo"}, {"Latitude": 51.4807751, "BrinNumber": "29ZT", "Longtitude": 3.9567166, "SchoolName": "Isaac Beeckman Academie Kapelle"}, {"Latitude": 51.9300529, "BrinNumber": "04IK", "Longtitude": 4.4752086, "SchoolName": "Accent Praktijkonderwijs Centrum"}, {"Latitude": 51.9032534, "BrinNumber": "07HF", "Longtitude": 4.446682399999999, "SchoolName": "Accent Praktijkonderwijs Delfshaven"}, {"Latitude": 51.9218456, "BrinNumber": "14QT", "Longtitude": 4.448392999999999, "SchoolName": "Marnix Gymnasium"}, {"Latitude": 51.882544, "BrinNumber": "16PK", "Longtitude": 4.508094799999999, "SchoolName": "Calvijn Christelijke Scholengemeenschap voor vwo havo mavo vmbo lwoo"}, {"Latitude": 51.9517894, "BrinNumber": "18CH", "Longtitude": 4.474014299999999, "SchoolName": "Melanchthon christelijke scholengemeenschap voor gymnasium atheneum havo vmbo"}, {"Latitude": 51.9294732, "BrinNumber": "19GY", "Longtitude": 4.5833724, "SchoolName": "Comenius College Christelijke Scholengemeenschap voor vwo havo vmbo lwoo"}, {"Latitude": 51.8773914, "BrinNumber": "20AM", "Longtitude": 4.5870973, "SchoolName": "Farelcollege Christelijke Scholengemeenschap voor atheneum havo mavo vmbo"}, {"Latitude": 51.8499622, "BrinNumber": "20FR", "Longtitude": 4.3079681, "SchoolName": "PENTA college Christelijke Scholengemeenschap voor gym ath havo mavo vmbo lwoo"}, {"Latitude": 51.9576441, "BrinNumber": "26HR", "Longtitude": 4.5851554, "SchoolName": "Accent Praktijkonderwijs Capelle"}, {"Latitude": 51.8672367, "BrinNumber": "28DF", "Longtitude": 4.346126, "SchoolName": "Accent praktijkonderwijs Hoogvliet"}, {"Latitude": 52.0099069, "BrinNumber": "02DZ", "Longtitude": 4.3465932, "SchoolName": "St Stanislascoll RK SGM v Lyc Havo Mavo Vbo Lwoo"}, {"Latitude": 52.0801635, "BrinNumber": "02GJ", "Longtitude": 4.271552, "SchoolName": "Christelijk College De Populier"}, {"Latitude": 52.038881, "BrinNumber": "04NF", "Longtitude": 4.269218, "SchoolName": "Hofstede-PrO School voor Praktijkonderwijs"}, {"Latitude": 52.0912951, "BrinNumber": "14TA", "Longtitude": 4.3431304, "SchoolName": "Christelijke Scholengemeenschap Zandvliet voor Lyceum en Havo"}, {"Latitude": 52.063407, "BrinNumber": "17HR", "Longtitude": 4.2516602, "SchoolName": "Interconf Hofstadcollege voor LYC HAVO MAVO VBO LWOO"}, {"Latitude": 52.08486449999999, "BrinNumber": "21GU", "Longtitude": 4.3097046, "SchoolName": "Scholengroep Esloo PC RK Scholengemeenschap voor Lyceum Havo Mavo Vbo Lwoo"}, {"Latitude": 51.987213, "BrinNumber": "21HC", "Longtitude": 4.2045812, "SchoolName": "Interconfessionele Scholengroep Westland voor Lyceum Havo Mavo Vbo Lwoo"}, {"Latitude": 51.9189247, "BrinNumber": "00JR", "Longtitude": 4.3784611, "SchoolName": "Scholengemeenschap Spieringshoek voor Gymnasium Atheneum en HAVO"}, {"Latitude": 51.8051262, "BrinNumber": "02CI", "Longtitude": 4.6920147, "SchoolName": "Christelijk Scholengemeenschap voor Lyceum Havo Mavo Vbo Lwoo Insula College"}, {"Latitude": 51.8427247, "BrinNumber": "16QA", "Longtitude": 4.6914125, "SchoolName": "Christelijke Scholengemeenschap De Lage Waard voor Ath Havo Mavo Vbo Lwoo"}, {"Latitude": 51.81744519999999, "BrinNumber": "14RR", "Longtitude": 4.6268951, "SchoolName": "DevelsteinCollege Christelijke Scholengemeenschap voor Voortgezet Onderwijs"}, {"Latitude": 51.9026778, "BrinNumber": "05EA", "Longtitude": 4.4604753, "SchoolName": "Scheepvaart en Transport College"}, {"Latitude": 51.9892003, "BrinNumber": "14YD", "Longtitude": 4.2213904, "SchoolName": "Lentiz locatie Floracollege"}, {"Latitude": 51.9160423, "BrinNumber": "17WQ", "Longtitude": 4.3579968, "SchoolName": "Lentiz onderwijsgroep"}, {"Latitude": 52.0914975, "BrinNumber": "02DQ", "Longtitude": 4.2837989, "SchoolName": "Christelijk Gymnasium Sorghvliet"}, {"Latitude": 52.0254494, "BrinNumber": "02LG", "Longtitude": 4.7135541, "SchoolName": "Carmelcollege Gouda voor tto gym ath havo mavo vmbo lwoo eoa"}, {"Latitude": 51.8839494, "BrinNumber": "00PG", "Longtitude": 4.5309595, "SchoolName": "Wartburg College Gereformeerde Scholengemeenschap voor Lyceum Havo Mavo Vbo Lwoo"}, {"Latitude": 52.0612946, "BrinNumber": "00PJ", "Longtitude": 4.5028594, "SchoolName": "Erasmuscollege voor Vwo Havo en Mavo"}, {"Latitude": 52.13917739999999, "BrinNumber": "14WJ", "Longtitude": 4.4729141, "SchoolName": "Het Vlietland College Scholengemeenschap voor Vwo Havo Mavo"}, {"Latitude": 52.0145456, "BrinNumber": "14SF", "Longtitude": 4.697489099999999, "SchoolName": "Christelijke Scholengemeenschap De Goudse Waarden Lyc Havo Mavo Vbo Lwoo Pro"}, {"Latitude": 52.0145456, "BrinNumber": "30FF", "Longtitude": 4.697489099999999, "SchoolName": "Praktijkschool De Goudse Waarden"}, {"Latitude": 51.8225249, "BrinNumber": "08VU", "Longtitude": 4.3897837, "SchoolName": "Christelijke Scholengemeenschap Willem van Oranje voor ATH HAVO MAVO"}, {"Latitude": 52.0658758, "BrinNumber": "20BC", "Longtitude": 4.5119729, "SchoolName": "Oranje Nassau College Scholengemeenschap Ath Havo Mavo Vbo Lwoo"}, {"Latitude": 52.1323813, "BrinNumber": "15BH", "Longtitude": 4.6510923, "SchoolName": "Chr Scholengemeenschap Groene Hart"}, {"Latitude": 52.1326377, "BrinNumber": "26LR", "Longtitude": 4.6538597, "SchoolName": "Groene Hart Praktijkschool"}, {"Latitude": 52.1967651, "BrinNumber": "25GD", "Longtitude": 4.4166668, "SchoolName": "Andreas College Christelijke Scholengemeenschap voor VWO Havo Vmbo"}, {"Latitude": 52.1967651, "BrinNumber": "26HN", "Longtitude": 4.4166668, "SchoolName": "Limes Praktijkonderwijs"}, {"Latitude": 51.7593442, "BrinNumber": "02IC", "Longtitude": 4.1620344, "SchoolName": "Edudelta College Middelharnis locatie Schoolstraat afd. Techniek en Economie"}, {"Latitude": 52.0195915, "BrinNumber": "02EA", "Longtitude": 4.7012064, "SchoolName": "Chr SGM op Ref Grondsl voor Pro, Lwoo, Vmbo, Havo en Vwo"}, {"Latitude": 52.0126494, "BrinNumber": "26MJ", "Longtitude": 4.3433804, "SchoolName": "Laurentius Praktijkschool"}, {"Latitude": 51.9056062, "BrinNumber": "02VG", "Longtitude": 4.4578374, "SchoolName": "Unie Noord"}, {"Latitude": 51.9218017, "BrinNumber": "05XJ", "Longtitude": 4.459268799999999, "SchoolName": "Het Lyceum Rotterdam voor Vwo en Havo"}, {"Latitude": 51.9365, "BrinNumber": "17KY", "Longtitude": 4.5555903, "SchoolName": "Roncalli MAVO"}, {"Latitude": 51.8859985, "BrinNumber": "17YF", "Longtitude": 4.4946693, "SchoolName": "Zuiderpark College voor Mavo Vbo en Lwoo"}, {"Latitude": 51.8843537, "BrinNumber": "23YU", "Longtitude": 4.5514437, "SchoolName": "Nova College"}, {"Latitude": 51.8855517, "BrinNumber": "29VW", "Longtitude": 4.4666617, "SchoolName": "LMC Praktijkonderwijs Talingstraat"}, {"Latitude": 51.8851363, "BrinNumber": "29VX", "Longtitude": 4.463133300000001, "SchoolName": "LMC Praktijkonderwijs Huismanstraat"}, {"Latitude": 51.9158084, "BrinNumber": "29VZ", "Longtitude": 4.4646533, "SchoolName": "LMC Praktijkonderwijs Schietbaanstraat"}, {"Latitude": 51.9018612, "BrinNumber": "27RW", "Longtitude": 4.4842992, "SchoolName": "de Passie Evangelische School voor Vmbo-tl, Havo, Atheneum, Gymnasium"}, {"Latitude": 52.1705129, "BrinNumber": "09VS", "Longtitude": 4.4847946, "SchoolName": "Het Waterland"}, {"Latitude": 52.0749644, "BrinNumber": "00HI", "Longtitude": 4.3727614, "SchoolName": "Scholengemeenschap Dalton Vatel Voor Lyceum HAVO MAVO VBO LWOO"}, {"Latitude": 52.0932389, "BrinNumber": "00XK", "Longtitude": 4.3916031, "SchoolName": "Veurs College Scholengemeenschap voor Atheneum Havo Mavo Vbo Lwoo"}, {"Latitude": 52.0740191, "BrinNumber": "02MU", "Longtitude": 4.3547115, "SchoolName": "Sint Maartenscollege Scholengemeenschap voor Vwo Havo en Mavo"}, {"Latitude": 52.0740191, "BrinNumber": "02VO", "Longtitude": 4.3547115, "SchoolName": "Gymnasium Novum voor Gymnasium Atheneum Havo Mavo"}, {"Latitude": 52.0890206, "BrinNumber": "02US", "Longtitude": 4.3167073, "SchoolName": "Scholengemeenschap Haags Montessori Lyceum voor Lyceum Havo Mavo Vbo"}, {"Latitude": 52.0640685, "BrinNumber": "19ZP", "Longtitude": 4.2480884, "SchoolName": "Maris College voor Mavo Vmbo Lwoo"}, {"Latitude": 52.0431337, "BrinNumber": "20CQ", "Longtitude": 4.3130236, "SchoolName": "Atlas Onderwijsgroep voor gymnasium, atheneum, havo, vmbo"}, {"Latitude": 52.0609411, "BrinNumber": "20KD", "Longtitude": 4.2951404, "SchoolName": "School voor Speciaal Voortgezet Onderwijs De Einder"}, {"Latitude": 52.0824286, "BrinNumber": "20LU", "Longtitude": 4.2890023, "SchoolName": "Gymnasium Haganum"}, {"Latitude": 52.0727147, "BrinNumber": "20MA", "Longtitude": 4.257034600000001, "SchoolName": "Scholengemeenschap het Segbroekcollege Vwo Havo Mavo"}, {"Latitude": 52.0923436, "BrinNumber": "20MD", "Longtitude": 4.3236371, "SchoolName": "Maerlant Lyceum met Afdeling Havo"}, {"Latitude": 52.06689369999999, "BrinNumber": "20MF", "Longtitude": 4.2377304, "SchoolName": "Dalton Den Haag gymnasium atheneum havo"}, {"Latitude": 52.0719258, "BrinNumber": "20MJ", "Longtitude": 4.2953946, "SchoolName": "Johan de Witt Scholengroep voor Vwo Havo Mavo Vmbo Pro Lwoo nieuwkomers"}, {"Latitude": 51.8354034, "BrinNumber": "19ZU", "Longtitude": 4.9608642, "SchoolName": "Gemeentelijk Gymnasium Camphusianum"}, {"Latitude": 51.82988479999999, "BrinNumber": "24TP", "Longtitude": 4.987432699999999, "SchoolName": "Merewade College Openbare Scholengemeenschap voor Ath Havo Mavo Vbo Lwoo"}, {"Latitude": 52.2432674, "BrinNumber": "23KU", "Longtitude": 4.4494023, "SchoolName": "Northgo College Openbare Scholengemeenschap voor Vmbo Havo Vwo"}, {"Latitude": 51.8478274, "BrinNumber": "26MP", "Longtitude": 4.9717034, "SchoolName": "De Noordhoek"}, {"Latitude": 51.79239519999999, "BrinNumber": "24PY", "Longtitude": 4.685388, "SchoolName": "Stedelijk Dalton Lyceum voor Lyceum Havo Mavo Vbo Lwoo"}, {"Latitude": 52.0348806, "BrinNumber": "20MM", "Longtitude": 4.264327199999999, "SchoolName": "Stichting Scholengroep Den Haag Zuid-West"}, {"Latitude": 51.825605, "BrinNumber": "26HD", "Longtitude": 4.7568112, "SchoolName": "Algemeen Bijzondere School voor Praktijkonderwijs De Sprong"}, {"Latitude": 51.79789719999999, "BrinNumber": "27VF", "Longtitude": 4.6685788, "SchoolName": "Hans Petri School"}, {"Latitude": 52.0504066, "BrinNumber": "21KM", "Longtitude": 4.4899824, "SchoolName": "School voor Praktijkonderwijs Het Atrium"}, {"Latitude": 52.0429691, "BrinNumber": "25GA", "Longtitude": 4.4967128, "SchoolName": "Scholen Combinatie Zoetermeer - Picasso Lyceum"}, {"Latitude": 51.8086186, "BrinNumber": "20KZ", "Longtitude": 4.6754544, "SchoolName": "Joh De Wittgymnasium"}, {"Latitude": 52.0209398, "BrinNumber": "13WH", "Longtitude": 4.7142765, "SchoolName": "De Goudse Scholengemeenschap voor VMBO-TL, HAVO en VWO Leo Vroman"}, {"Latitude": 52.0214796, "BrinNumber": "20AI", "Longtitude": 4.7195658, "SchoolName": "Coornhert Gymnasium"}, {"Latitude": 52.0148667, "BrinNumber": "26LT", "Longtitude": 4.7026666, "SchoolName": "Het Segment Regionale School voor Praktijkonderwijs"}, {"Latitude": 52.1379438, "BrinNumber": "10AN", "Longtitude": 4.6704269, "SchoolName": "Scala College voor Atheneum Havo Vmbo-Loot"}, {"Latitude": 51.9310662, "BrinNumber": "20BH", "Longtitude": 4.5958745, "SchoolName": "IJsselcollege(VWO,HAVO,MAVO,VMBO,PRO)"}, {"Latitude": 51.9252317, "BrinNumber": "16EI", "Longtitude": 4.391504299999999, "SchoolName": "Lyceum Schravenlant voor Atheneum en Havo"}, {"Latitude": 51.9172944, "BrinNumber": "18VX", "Longtitude": 4.3869889, "SchoolName": "ProNovaCollege voor Praktijkonderwijs"}, {"Latitude": 51.92022919999999, "BrinNumber": "19KM", "Longtitude": 4.3802028, "SchoolName": "Mavo Schravenlant XL voor mavo en vmbo"}, {"Latitude": 51.9275679, "BrinNumber": "20CJ", "Longtitude": 4.3519664, "SchoolName": "Het College Vos"}, {"Latitude": 51.9275349, "BrinNumber": "20DC", "Longtitude": 4.3738318, "SchoolName": "Stedelyk Gymnasium"}, {"Latitude": 51.8932296, "BrinNumber": "11ZH", "Longtitude": 4.1728686, "SchoolName": "Scholengemeenschap Maerlant College voor Lyceum Havo Mavo Vbo Lwoo"}, {"Latitude": 51.8354143, "BrinNumber": "12RB", "Longtitude": 4.1186811, "SchoolName": "SG Helinium voor Atheneum Havo Mavo Vbo Lwoo"}, {"Latitude": 51.8932296, "BrinNumber": "14AP", "Longtitude": 4.1728686, "SchoolName": "Praktijk College Brielle"}, {"Latitude": 51.84884599999999, "BrinNumber": "18VA", "Longtitude": 4.3132285, "SchoolName": "Praktijk College Spijkenisse"}, {"Latitude": 51.84521119999999, "BrinNumber": "19DH", "Longtitude": 4.338830700000001, "SchoolName": "Openbare Scholengemeenschap De Ring voor Putten voor Ath Havo Mavo"}, {"Latitude": 51.848847, "BrinNumber": "23AP", "Longtitude": 4.314521099999999, "SchoolName": "MY college voor VMBO"}, {"Latitude": 51.8327369, "BrinNumber": "20AE", "Longtitude": 4.6838238, "SchoolName": "Willem De Zwijger College voor Gym, Ath, Havo, en Vmbo"}, {"Latitude": 51.897411, "BrinNumber": "02LB", "Longtitude": 4.508227, "SchoolName": "Openbare Scholengemeenschap Nieuw Zuid voor Lyceum Havo Mavo Vbo Lwoo"}, {"Latitude": 51.9312633, "BrinNumber": "15EO", "Longtitude": 4.504323299999999, "SchoolName": "Openbare Scholengemeenschap Libanon Lyceum voor VWO HAVO MAVO"}, {"Latitude": 51.9390333, "BrinNumber": "15HX", "Longtitude": 4.5474045, "SchoolName": "Thorbecke Voortgezet Onderwijs voor Atheneum Havo Mavo Vbo Lwoo"}, {"Latitude": 51.925711, "BrinNumber": "15KR", "Longtitude": 4.4570629, "SchoolName": "Wolfert van Borselen scholengroep"}, {"Latitude": 51.9124363, "BrinNumber": "15SC", "Longtitude": 4.4689562, "SchoolName": "Erasmianum Gemeente Gymnasium"}, {"Latitude": 51.8569207, "BrinNumber": "17CR", "Longtitude": 4.3599483, "SchoolName": "Einstein Lyceum Openbare Scholengemeenschap voor Mavo Havo Ath Gymn"}, {"Latitude": 51.7558741, "BrinNumber": "15QW", "Longtitude": 4.1626628, "SchoolName": "Regionale Scholengemeenschap Goeree-Overflakkee voor Vwo Havo Mavo Vmbo"}, {"Latitude": 52.1531714, "BrinNumber": "20DP", "Longtitude": 4.5058657, "SchoolName": "Stedelijk Gymnasium"}, {"Latitude": 52.1696535, "BrinNumber": "30GD", "Longtitude": 4.498533399999999, "SchoolName": "Stedelijk Gymnasium Socrates"}, {"Latitude": 52.1520107, "BrinNumber": "20CL", "Longtitude": 4.469984, "SchoolName": "Leonardo College voor Atheneum Havo Mavo"}, {"Latitude": 52.17234140000001, "BrinNumber": "20DF", "Longtitude": 4.4825611, "SchoolName": "Da Vinci College Openbare Scholengemeenschap voor ATH HAVO MAVO VBO LWOO"}, {"Latitude": 51.94834609999999, "BrinNumber": "08CU", "Longtitude": 4.5644803, "SchoolName": "Emmauscollege Rooms Katholieke Scholengemeenschap voor Vwo en Havo"}, {"Latitude": 51.9987876, "BrinNumber": "20AB", "Longtitude": 4.3468212, "SchoolName": "Grotius College voor Lyceum Havo Mavo Vbo Lwoo"}, {"Latitude": 51.9206862, "BrinNumber": "14WL", "Longtitude": 4.5207972, "SchoolName": "Krimpenerwaard College voor Lyceum Havo Mavo"}, {"Latitude": 51.8478274, "BrinNumber": "00WH", "Longtitude": 4.9717034, "SchoolName": "Gomarusschool s.g.voor VMBO Havo Atheneum"}, {"Latitude": 51.82072340000001, "BrinNumber": "15XV", "Longtitude": 4.3959963, "SchoolName": "Regionale Scholengemeenschap Hoeksche Waard"}, {"Latitude": 51.9503517, "BrinNumber": "05TA", "Longtitude": 4.839125399999999, "SchoolName": "Christelijke Scholengemeenschap voor Atheneum Havo Mavo Willem De Zwijger"}, {"Latitude": 51.9517628, "BrinNumber": "15OM", "Longtitude": 4.844857, "SchoolName": "Het Schoonhovens College"}, {"Latitude": 52.03961109999999, "BrinNumber": "00BD", "Longtitude": 4.6514359, "SchoolName": "Coenecoop College voor Atheneum Havo Mavo Voorbereidend Beroeps Onderwijs"}, {"Latitude": 51.7558741, "BrinNumber": "03RB", "Longtitude": 4.1626628, "SchoolName": "Christelijke Scholengemeenschap voor Atheneum Havo Mavo Vbo Lwoo Prins Maurits"}, {"Latitude": 51.8749923, "BrinNumber": "30WH", "Longtitude": 4.4892642, "SchoolName": "Avicenna College voor vwo, havo, mavo en vbo"}, {"Latitude": 51.88479719999999, "BrinNumber": "18TR", "Longtitude": 4.6036081, "SchoolName": "Onderwijsgr. Zuid-Hollandse Waarden gymnasium, atheneum, havo, mavo, vmbo, lwoo"}, {"Latitude": 51.9450466, "BrinNumber": "00TU", "Longtitude": 4.5606272, "SchoolName": "Gereformeerde Scholengemeenschap Randstad Gymnasium Atheneum HAVO VMBO"}, {"Latitude": 52.13232989999999, "BrinNumber": "02GP", "Longtitude": 4.3875281, "SchoolName": "Het Rijnlands Lyceum Scholengemeenschap voor Havo VWO"}, {"Latitude": 52.2184791, "BrinNumber": "14TD", "Longtitude": 4.5172662, "SchoolName": "Het Rijnlands Sassenheim Scholengemeenschap voor Atheneum Havo Mavo"}, {"Latitude": 52.1819607, "BrinNumber": "16RH", "Longtitude": 4.4632361, "SchoolName": "Het Rijnlands Lyc Scholengemeenschap Vwo Havo"}, {"Latitude": 51.92522200000001, "BrinNumber": "02GS", "Longtitude": 4.4606997, "SchoolName": "Scholengemeenschap Montessori Lyceum Rotterdam voor Gymnasium Atheneum en Havo"}, {"Latitude": 51.9272208, "BrinNumber": "00VR", "Longtitude": 4.3423753, "SchoolName": "St.- Jozefmavo"}, {"Latitude": 52.2616702, "BrinNumber": "00UZ", "Longtitude": 4.5679251, "SchoolName": "Fioretti College voor Gymnasium Atheneum Havo Mavo Vbo Lwoo"}, {"Latitude": 52.22272640000001, "BrinNumber": "02KB", "Longtitude": 4.4750184, "SchoolName": "Teylingen College voor Gymnasium Atheneum Havo Mavo Vbo Lwoo"}, {"Latitude": 52.17234140000001, "BrinNumber": "02VD", "Longtitude": 4.4825611, "SchoolName": "Visser t Hooft Lyceum Lyceum Havo Mavo Vbo Lwoo"}, {"Latitude": 52.1512389, "BrinNumber": "21GW", "Longtitude": 4.5054911, "SchoolName": "Bonaventuracollege SGM voor Gym. Ath. Havo Vmbo"}, {"Latitude": 51.8969391, "BrinNumber": "17XU", "Longtitude": 5.0926785, "SchoolName": "Heerenlanden College"}, {"Latitude": 51.93161019999999, "BrinNumber": "23JA", "Longtitude": 4.462040099999999, "SchoolName": "Grafisch Lyceum Rotterdam voor Mbo Bbo Mavo Vbo"}, {"Latitude": 52.0838796, "BrinNumber": "07MZ", "Longtitude": 4.2794604, "SchoolName": "Protestants Christelijke School voor Praktijkonderwijs De Poort"}, {"Latitude": 51.8221461, "BrinNumber": "06WY", "Longtitude": 4.7807527, "SchoolName": "Griendencollege voor VMBO"}, {"Latitude": 52.14424899999999, "BrinNumber": "14WE", "Longtitude": 4.416714, "SchoolName": "S. Adelbert College voor Lyceum Havo en Mavo"}, {"Latitude": 51.9651197, "BrinNumber": "02UG", "Longtitude": 4.4966436, "SchoolName": "Sint Laurenscollege Atheneum en Havo"}, {"Latitude": 52.1465543, "BrinNumber": "04DF", "Longtitude": 4.6547712, "SchoolName": "Ashram College Rooms Katholieke Scholengemeenschap voor Atheneum Havo Mavo Vbo"}, {"Latitude": 52.10009950000001, "BrinNumber": "02UT", "Longtitude": 4.2839012, "SchoolName": "Vrijzinnig Christelijk Lyceum Scholengemeenschap voor Vwo en Havo"}, {"Latitude": 52.0725794, "BrinNumber": "01MB", "Longtitude": 4.5028312, "SchoolName": "Rooms Katholiek Alfrink College Scholengemeenschap voor Atheneum en Havo"}, {"Latitude": 52.0939105, "BrinNumber": "01PU", "Longtitude": 4.3136112, "SchoolName": "Aloysiuscollege Katholiek Scholengemeenschap voor Vwo Havo en Mavo"}, {"Latitude": 52.0063041, "BrinNumber": "01GX", "Longtitude": 4.341963499999999, "SchoolName": "Christelijk Lyceum Delft Scholengemeenschap voor Lyceum Havo Mavo Vbo"}, {"Latitude": 52.1028751, "BrinNumber": "16TV", "Longtitude": 4.3152342, "SchoolName": "Vrije School Zuid-Holland voor Atheneum Havo Mavo"}]