[{"Latitude": 53.1978293, "BrinNumber": "12VI", "Longtitude": 5.801201, "SchoolName": "Nordwin College"}, {"Latitude": 52.0194439, "BrinNumber": "25GV", "Longtitude": 5.6613219, "SchoolName": "Agrarisch Opleidingen Centrum Groenhorst"}, {"Latitude": 51.95378789999999, "BrinNumber": "01IC", "Longtitude": 6.3020914, "SchoolName": "Agrarisch Opleidingen Centrum Oost"}, {"Latitude": 53.2030704, "BrinNumber": "01NJ", "Longtitude": 6.575597999999999, "SchoolName": "Agrarisch Opleidingscentrum Terra"}, {"Latitude": 51.1773885, "BrinNumber": "21CS", "Longtitude": 5.9562851, "SchoolName": "CITAVERDE College"}, {"Latitude": 51.599456, "BrinNumber": "21CY", "Longtitude": 4.8034, "SchoolName": "AOC West Brabant"}, {"Latitude": 51.69384789999999, "BrinNumber": "26CC", "Longtitude": 5.2744912, "SchoolName": "Helicon Opleidingen"}, {"Latitude": 52.6434063, "BrinNumber": "25EF", "Longtitude": 4.7572209, "SchoolName": "Clusius College"}, {"Latitude": 52.5029404, "BrinNumber": "13US", "Longtitude": 6.0878204, "SchoolName": "Agrarisch Opleidingen Centrum De Groene Welle"}, {"Latitude": 52.0378786, "BrinNumber": "01OE", "Longtitude": 5.164782199999999, "SchoolName": "Wellantcollege"}, {"Latitude": 51.4976218, "BrinNumber": "11UL", "Longtitude": 3.891179999999999, "SchoolName": "Edudelta Onderwijsgroep"}, {"Latitude": 51.9067958, "BrinNumber": "14YD", "Longtitude": 4.3665293, "SchoolName": "Lentiz onderwijsgroep"}, {"Latitude": 51.6888395, "BrinNumber": "24ZW", "Longtitude": 5.2677379, "SchoolName": "BBO de Schalm"}, {"Latitude": 52.0609168, "BrinNumber": "24ZV", "Longtitude": 4.4682693, "SchoolName": "Effatha Christelijke School voor BBO aan doven"}, {"Latitude": 52.7740812, "BrinNumber": "25PW", "Longtitude": 6.9433722, "SchoolName": "Regionaal Opleidingen Centrum Drenthe College"}, {"Latitude": 52.393189, "BrinNumber": "25LR", "Longtitude": 5.2769713, "SchoolName": "Regionaal Opleidingen Centrum van Flevoland"}, {"Latitude": 53.1875491, "BrinNumber": "08PG", "Longtitude": 5.7975207, "SchoolName": "Regionaal Opleidingen Centrum Friese Poort"}, {"Latitude": 53.1886405, "BrinNumber": "25LG", "Longtitude": 5.7878453, "SchoolName": "Regionaal Opleidingen Centrum Friesland College"}, {"Latitude": 51.8863509, "BrinNumber": "04CY", "Longtitude": 5.4125876, "SchoolName": "Regionaal Opleidingen Centrum Rivor"}, {"Latitude": 51.96689139999999, "BrinNumber": "24ZZ", "Longtitude": 6.2995378, "SchoolName": "Regionaal Opleidingen Centrum Graafschap College"}, {"Latitude": 51.9935443, "BrinNumber": "25LF", "Longtitude": 5.8964675, "SchoolName": "Regionaal Opleidingen Centrum Rijn IJssel"}, {"Latitude": 51.8365676, "BrinNumber": "25PN", "Longtitude": 5.8528242, "SchoolName": "Regionaal Opleidingen Centrum Nijmegen eo"}, {"Latitude": 52.2088189, "BrinNumber": "27DV", "Longtitude": 5.9683201, "SchoolName": "Stichting Regionaal Opleidingen Centrum AVENTUS"}, {"Latitude": 52.0195835, "BrinNumber": "25PM", "Longtitude": 5.6626515, "SchoolName": "Regionaal Opleidingen Centrum A12"}, {"Latitude": 53.2069135, "BrinNumber": "25LU", "Longtitude": 6.5894822, "SchoolName": "Regionaal Opleidingen Centrum Alfa- college"}, {"Latitude": 53.20102860000001, "BrinNumber": "14NZ", "Longtitude": 6.5677894, "SchoolName": "ROC Menso Alting"}, {"Latitude": 50.8459734, "BrinNumber": "25PL", "Longtitude": 5.718900199999999, "SchoolName": "Regionaal Opleidingen Centrum Leeuwenborgh"}, {"Latitude": 50.8800536, "BrinNumber": "25PU", "Longtitude": 5.9619133, "SchoolName": "Regionaal Opleidingen Centrum Arcus College"}, {"Latitude": 51.192727, "BrinNumber": "25LT", "Longtitude": 6.016312, "SchoolName": "Regionaal Opleidingen Centrum Gilde Opleidingen Beroepsonderwijs en Educatie"}, {"Latitude": 51.6888395, "BrinNumber": "04FO", "Longtitude": 5.2677379, "SchoolName": "Koning Willem I College"}, {"Latitude": 51.5396187, "BrinNumber": "25LZ", "Longtitude": 5.0804656, "SchoolName": "Regionaal Opleidingen Centrum Tilburg"}, {"Latitude": 51.4878994, "BrinNumber": "25LJ", "Longtitude": 5.6570686, "SchoolName": "Stichting Regionaal Opleidingencentrum Ter AA"}, {"Latitude": 51.6216216, "BrinNumber": "28DE", "Longtitude": 5.5632429, "SchoolName": "ROC de Leijgraaf"}, {"Latitude": 52.9523605, "BrinNumber": "04EU", "Longtitude": 4.7640095, "SchoolName": "Regionaal Opleidingen Centrum Kop van Noord-Holland voor VAVO MBO VW"}, {"Latitude": 52.3152444, "BrinNumber": "25PZ", "Longtitude": 4.9466294, "SchoolName": "ROC van Amsterdam"}, {"Latitude": 52.4372568, "BrinNumber": "25RA", "Longtitude": 4.8072096, "SchoolName": "Regio College voor Beroepsonderwijs en Educatie Zaanstreek-Waterland"}, {"Latitude": 52.3716525, "BrinNumber": "25PX", "Longtitude": 4.6383006, "SchoolName": "Regionaal Opleidingen Centrum Nova College"}, {"Latitude": 52.63928319999999, "BrinNumber": "25PT", "Longtitude": 4.7418584, "SchoolName": "Regionaal Opleidingen Centrum Horizon College"}, {"Latitude": 52.3467537, "BrinNumber": "30RM", "Longtitude": 4.8376775, "SchoolName": "Stichting ROC TOP"}, {"Latitude": 52.5230392, "BrinNumber": "25PJ", "Longtitude": 6.0829694, "SchoolName": "Deltion College"}, {"Latitude": 52.2602768, "BrinNumber": "27YU", "Longtitude": 6.788351, "SchoolName": "Regionaal Opleidingencentrum van Twente"}, {"Latitude": 52.1187599, "BrinNumber": "25LH", "Longtitude": 5.1217753, "SchoolName": "Stichting ROC Midden Nederland"}, {"Latitude": 52.1403244, "BrinNumber": "09MR", "Longtitude": 5.357657199999999, "SchoolName": "Hoornbeeck College voor Mbo op Reformatorische Grondslag"}, {"Latitude": 52.0646128, "BrinNumber": "30RN", "Longtitude": 5.1036176, "SchoolName": "Stichting Interconfessioneel Beroepsonderwijs Volwasseneneducatie regio Utrecht"}, {"Latitude": 52.1411544, "BrinNumber": "30RR", "Longtitude": 5.3785073, "SchoolName": "Stichting Interconf. Beroepsonderwijs en Volwasseneneducatie Regio Amersfoort"}, {"Latitude": 51.309259, "BrinNumber": "25PV", "Longtitude": 3.8579923, "SchoolName": "Scalda voor middelbaar beroepsonderwijs en volwasseneneducatie"}, {"Latitude": 51.9526333, "BrinNumber": "25LP", "Longtitude": 4.5545244, "SchoolName": "Zadkine"}, {"Latitude": 51.9067199, "BrinNumber": "00GT", "Longtitude": 4.507325499999999, "SchoolName": "Regionaal Opleidingen Centrum Albeda College"}, {"Latitude": 51.79825710000001, "BrinNumber": "20MQ", "Longtitude": 4.678412, "SchoolName": "Regionaal Opleidingen Centrum Da Vinci College"}, {"Latitude": 52.0254494, "BrinNumber": "25LN", "Longtitude": 4.7135541, "SchoolName": "Regionaal Opleidingen Centrum"}, {"Latitude": 52.1493407, "BrinNumber": "25MA", "Longtitude": 4.479237299999999, "SchoolName": "Regionaal Opleidingen Centrum Leiden Duin- en Bollenstreek"}, {"Latitude": 52.0663492, "BrinNumber": "27GZ", "Longtitude": 4.3213061, "SchoolName": "ROC Mondriaan"}, {"Latitude": 52.9914302, "BrinNumber": "25LW", "Longtitude": 6.9543054, "SchoolName": "Stichting voor Beroepsonderwijs, Volwasseneneducatie en Voortgezet onderwijs"}, {"Latitude": 51.5706021, "BrinNumber": "25LX", "Longtitude": 4.6617713, "SchoolName": "ROC West-Brabant"}, {"Latitude": 51.4670029, "BrinNumber": "25MB", "Longtitude": 5.497402399999999, "SchoolName": "Stg ROC Summa College"}, {"Latitude": 51.568934, "BrinNumber": "25LV", "Longtitude": 5.064009599999999, "SchoolName": "Scholengemeenschap De Rooi Pannen"}, {"Latitude": 52.521367, "BrinNumber": "01AA", "Longtitude": 6.1275524, "SchoolName": "Landstede"}, {"Latitude": 52.330724, "BrinNumber": "04NZ", "Longtitude": 5.6346066, "SchoolName": "SOMA College"}, {"Latitude": 52.5197273, "BrinNumber": "02PN", "Longtitude": 6.087823600000001, "SchoolName": "C I B A P Christelijk MBO"}, {"Latitude": 52.0790909, "BrinNumber": "23KG", "Longtitude": 5.117776, "SchoolName": "Grafisch Lyceum Utrecht"}, {"Latitude": 52.1006464, "BrinNumber": "02PK", "Longtitude": 5.1414224, "SchoolName": "Nimeto Algemen Bijzondere Scholengemeenschap voor Mbo Kmbo"}, {"Latitude": 52.01969649999999, "BrinNumber": "17WH", "Longtitude": 5.1507971, "SchoolName": "SVO Vakopleiding Food"}, {"Latitude": 51.947179, "BrinNumber": "02PG", "Longtitude": 4.4675445, "SchoolName": "Hout en Meubileringscollege Mbo"}, {"Latitude": 52.1667155, "BrinNumber": "02OV", "Longtitude": 4.462295, "SchoolName": "Leidse Instrumentmakers School"}, {"Latitude": 51.4279582, "BrinNumber": "30BC", "Longtitude": 5.457175100000001, "SchoolName": "SiNTLUCAS"}, {"Latitude": 52.3945395, "BrinNumber": "02PA", "Longtitude": 4.8549174, "SchoolName": "Stichting Media Amsterdam"}, {"Latitude": 51.9026778, "BrinNumber": "05EA", "Longtitude": 4.4604753, "SchoolName": "Scheepvaart en Transport College"}, {"Latitude": 51.9279004, "BrinNumber": "23JA", "Longtitude": 4.4792904, "SchoolName": "Grafisch Lyceum Rotterdam voor MBO en VMBO"}]